,code,lat,lon,name,city,state,country,woeid,tz,phone,type,email,url,runway_length,elev,icao,direct_flights,carriers
0,AAA,-17.3595,-145.494,Anaa Airport,Anaa,Tuamotu-Gambier,French Polynesia,12512819,Pacific/Midway,0,Airports,BLANK,BLANK,4921.0,7.0,NTGA,2,1
1,AAE,36.8236,7.8103,El Mellah Airport,El Tarf,Annaba,Algeria,12510325,Africa/Algiers,0,Airports,BLANK,BLANK,9843.0,16.0,DABB,6,2
2,AAL,57.0952,9.85606,Aalborg Airport,Norresundby,Nordjylland,Denmark,12512587,Europe/Copenhagen,0,Airports,BLANK,http://www.aal.dk/,8700.0,10.0,EKYT,7,10
3,AAM,-24.8,31.5333,Mala Mala,Mala Mala,BLANK,South Africa,55921381,Africa/Johannesburg,0,Airports,BLANK,BLANK,4420.0,1200.0,FAMD,1,1
4,AAN,24.25,55.75,Al Ain Airport,Ayn al Faydah,Abu Dhabi,United Arab Emirates,12523371,Asia/Dubai,0,Airports,BLANK,BLANK,,,OMAL,12,9
5,AAQ,44.9,37.3167,Olkhovka Airport,Novorossiysk,Krasnodarskiy Kray,Russia,12516605,Europe/Moscow,0,Airports,BLANK,BLANK,,,URKA,24,15
6,AAR,56.3088,10.6154,Tirstrup Airport,Kolind,Midtjylland,Denmark,12512604,Europe/Copenhagen,+45 8775 7000,Airports,BLANK,http://www.aar.dk,9127.0,81.0,EKAH,9,8
7,AAT,47.7406,88.0845,Altay Airport,Altay,Xinjiang,China,12511977,Asia/Urumqi,0,Airports,BLANK,BLANK,,,ZWAT,1,1
8,AAX,-19.5603,-46.9653,Romeu Zuma Airport,Araxá,Minas Gerais,Brazil,12511034,America/Sao_Paulo,0,Airports,BLANK,BLANK,6230.0,3274.0,SBAX,2,1
9,AAY,16.1947,52.1694,Al Gaidah Airport,Al Ghaydah,Hadramawt,Yemen,12523000,Asia/Aden,0,Airports,BLANK,BLANK,8858.0,98.0,OYGD,3,2
10,ABA,53.7167,91.4333,Abakan,Abakan,Khakasiya,Russian Federation,2119917,Asia/Krasnoyarsk,0,Airports,BLANK,BLANK,,,UNAA,4,3
11,ABC,38.9833,-1.85,Los Llanos,Albacete,Castilla-la Mancha,Spain,20081243,Europe/Madrid,0,Airports,BLANK,BLANK,,,LEAB,3,2
12,ABD,30.3374,48.3032,BLANK,Abadan,Khuzestan,Iran,2254271,Asia/Tehran,0,Airports,BLANK,BLANK,10170.0,10.0,OIAA,5,3
13,ABE,40.6514,-75.4342,Lehigh Valley International Airport,Allentown,Pennsylvania,United States,12518581,America/New_York,610-266-6000,Airports,BLANK,http://www.lvia.org/,,,KABE,14,11
14,ABI,32.4164,-99.6803,Abilene Regional Airport,Abilene,Texas,United States,12518518,America/Chicago,0,Airports,BLANK,BLANK,7199.0,1790.0,KABI,2,4
15,ABJ,5.2556,-3.9292,Abidjan Port Bouet Airport,Abidjan,Abidjan,Ivory Coast,12513870,Africa/Abidjan,0,Airports,BLANK,BLANK,8858.0,20.0,DIAP,22,29
16,ABK,6.73719,44.2797,Kabri Dar,Kabri Dar,Ogaden,Ethiopia,1317686,Africa/Addis_Ababa,0,Airports,BLANK,BLANK,10935.0,1800.0,HAKD,1,1
17,ABL,67.1058,-157.854,Ambler Airport,Kiana,Alaska,United States,12518600,America/Anchorage,0,Airports,BLANK,BLANK,2600.0,289.0,BLANK,2,3
18,ABM,-10.9438,142.453,Bamaga Airport,Seisia,Queensland,Australia,12510598,Australia/Brisbane,0,Airports,BLANK,BLANK,6700.0,49.0,YBAM,1,1
19,ABQ,35.0494,-106.625,Albuquerque International Airport,Albuquerque,New Mexico,United States,12518564,America/Denver,0,Airports,BLANK,BLANK,13375.0,5352.0,KABQ,41,25
20,ABR,45.4536,-98.4189,Aberdeen Regional Airport,Aberdeen,South Dakota,United States,12518514,America/Chicago,0,Airports,BLANK,BLANK,6904.0,1301.0,KABR,3,5
21,ABS,22.3722,31.6125,Abu Simbel Airport,Abu Simbel,Aswan,Egypt,12512656,Africa/Cairo,0,Airports,BLANK,BLANK,8202.0,615.0,HEBL,1,1
22,ABT,20.2961,41.6342,Al Baha Airport,Al Aqiq,Al Baha,Saudi Arabia,12517321,Asia/Riyadh,0,Airports,BLANK,BLANK,10991.0,5486.0,OEBA,3,1
23,ABV,9.0056,7.2661,Abuja International Airport,Gwagwa,Abuja Capital Territory,Nigeria,12515056,Africa/Lagos,0,Airports,BLANK,BLANK,11808.0,1122.0,DNAA,9,12
24,ABX,-36.0678,146.956,Albury Airport,Albury,New South Wales,Australia,12510583,Australia/Sydney,0,Airports,BLANK,BLANK,6234.0,539.0,YMAY,3,5
25,ABY,31.5328,-84.1867,Southwest Georgia Regional Airport,Albany,Georgia,United States,12521922,America/New_York,0,Airports,BLANK,BLANK,6601.0,197.0,KABY,1,2
26,ABZ,57.2004,-2.20373,Aberdeen Dyce International Airport,Aberdeen,Scotland,United Kingdom,22450858,Europe/London,0,Airports,BLANK,http://www.aberdeenairport.com/,6002.0,215.0,EGPD,37,35
27,ACA,16.7561,-99.7536,General Juan N Alvarez International Airport,Acapulco,Guerrero,Mexico,12514882,America/Mexico_City,52-748-66-93-23,Airports,BLANK,BLANK,,,MMAA,12,17
28,ACC,5.5964,-0.17,Kotoka International Airport,Accra,Greater Accra,Ghana,12513022,Africa/Accra,0,Airports,BLANK,http://www.gcaa.com.gh/index.html,9800.0,205.0,DGAA,25,30
29,ACE,28.9521,-13.6085,Arrecife Airport,San Bartolomé,Canary Islands,Spain,12523048,Atlantic/Canary,0,Airports,BLANK,BLANK,7874.0,46.0,GCRR,49,28
30,ACH,47.4887,9.55376,Altenrhein Airport,Altenrhein,Canton of St. Gallen,Switzerland,23344872,Europe/Zurich,0,Airports,BLANK,http://www.airport-stgallen.com/,4350.0,1306.0,LSZR,1,1
31,ACI,49.7134,-2.22089,The Blaye Airport,St. Peter Port,Channel Islands,United Kingdom,12523974,Europe/Jersey,0,Airports,BLANK,BLANK,2887.0,291.0,EGJA,2,1
32,ACK,41.2568,-70.0649,Nantucket Memorial Airport,Nantucket,Massachusetts,United States,12521076,America/New_York,0,Airports,BLANK,BLANK,6303.0,48.0,KACK,9,6
33,ACP,68.1609,-151.696,Sahand Airport,Sahand,BLANK,Iran,23424851,Asia/Tehran,0,Airports,BLANK,BLANK,,,KACP,1,1
34,ACS,47.7006,18.0064,BLANK,Achinsk,Krasnoyarskiy Kray,Russia,1979926,Asia/Krasnoyarsk,0,Airports,BLANK,BLANK,,,BLANK,0,0
35,ACT,31.609,-97.2234,Waco Regional Airport,Waco,Texas,United States,12522299,America/Chicago,0,Airports,BLANK,BLANK,6597.0,516.0,KACT,2,2
36,ACV,40.9698,-124.108,Arcata Airport,Mckinleyville,California,United States,12518649,America/Los_Angeles,0,Airports,BLANK,BLANK,5998.0,218.0,KACV,6,7
37,ACX,25.0887,104.89,Xingyi,Xingyi,Guizhou,China,2146722,Asia/Chongqing,0,Airports,BLANK,BLANK,,,BLANK,2,2
38,ACY,39.4512,-74.5716,Atlantic City International Airport,Egg Harbor City,New Jersey,United States,12518689,America/New_York,0,Airports,BLANK,BLANK,10000.0,76.0,KACY,6,1
39,ACZ,31.0385,61.4962,Zabol A/P,Zabol,Sistan va Baluchestan,Iran,2255305,Asia/Tehran,0,Airports,BLANK,BLANK,,,KACZ,1,1
40,ADA,36.9811,35.2803,Sakirpasa Airport,Adana,Adana,Turkey,12517911,Europe/Istanbul,0,Airports,BLANK,BLANK,9022.0,64.0,LTAF,14,4
41,ADB,38.32,27.1603,Gaziemir Airport,Azmir,İzmir,Turkey,12517893,Europe/Istanbul,0,Airports,BLANK,BLANK,7700.0,412.0,LTBJ,37,10
42,ADD,8.9783,38.8011,Bole International Airport,Addis Ababa,Debub Shewa,Ethiopia,12512758,Africa/Addis_Ababa,0,Airports,BLANK,BLANK,12139.0,7625.0,HAAB,43,25
43,ADE,12.8278,45.0306,Aden International Airport,Ash Shaykh Uthman,`Adan,Yemen,12522998,Asia/Aden,0,Airports,BLANK,BLANK,10270.0,12.0,OYAA,15,8
44,ADF,37.8099,38.3357,Adiyaman Airport,Adiyaman,Adıyaman,Turkey,2347259,Europe/Istanbul,0,Airports,BLANK,BLANK,,,LTAG,2,1
45,ADJ,31.973,35.9822,Al Matar Airport,Amman,'Amman,Jordan,23388321,Asia/Amman,0,Airports,BLANK,BLANK,,,OJAM,2,2
46,ADK,51.88,-176.639,Adak Airport,Adak,Alaska,United States,12518524,America/Adak,0,Airports,BLANK,BLANK,7794.0,19.0,PADK,1,1
47,ADL,-34.9464,138.529,Adelaide International Airport,Adelaide,South Australia,Australia,1107231,Australia/Adelaide,0,Airports,BLANK,http://www.aal.com.au,10171.0,20.0,YPAD,24,20
48,ADQ,57.7545,-152.512,Kodiak Airport,Kodiak,Alaska,United States,12520492,America/Anchorage,0,Airports,BLANK,BLANK,7548.0,73.0,PADQ,12,7
49,ADU,38.2465,48.2951,Ardabil Airport,Ardabil,Ardabil,Iran,2254335,Asia/Tehran,0,Airports,BLANK,BLANK,,,OITL,1,2
50,ADX,56.377,-2.86117,Leuchars Airport,St. Andrews,Scotland,United Kingdom,12518118,Europe/London,0,Airports,BLANK,BLANK,8707.0,38.0,EGQL,2,1
51,ADZ,12.5811,-81.7092,Sesquicentenario Airport,San Andrés,San Andres y Providencia,Colombia,12512417,America/Bogota,0,Airports,BLANK,BLANK,7808.0,19.0,SKSP,7,3
52,AEH,13.8486,20.8472,Abeche Airport,Abéché,Ouaddai,Chad,12511930,Africa/Ndjamena,0,Airports,BLANK,BLANK,5905.0,1788.0,FTTC,1,1
53,AEP,-34.5617,-58.4113,Aeroparque Jorge Newbery,Buenos Aires,Ciudad de Buenos Aires,Argentina,23388199,America/Buenos_Aires,(54 11) 5480 6111,Airports,BLANK,http://www.aa2000.com.ar,6890.0,20.0,SABE,31,4
54,AER,43.447,39.9552,Adler Airport,Sochi,Krasnodarskiy Kray,Russia,12515677,Europe/Moscow,0,Airports,BLANK,BLANK,,,URSS,45,31
55,AES,62.5607,6.11129,Vigra Airport,Vigra,More og Romsdal,Norway,12515129,Europe/Oslo,+47 70 11 48 00,Airports,BLANK,BLANK,5249.0,71.0,ENAL,6,2
56,AET,66.55,-152.65,Allakaket Airport,Allakaket,Alaska,United States,12524551,America/Anchorage,0,Airports,BLANK,BLANK,3000.0,350.0,BLANK,4,4
57,AEX,31.323,-92.5417,Alexandria International Airport,Alexandria,Louisiana,United States,12519648,America/Chicago,0,Airports,BLANK,BLANK,,,KAEX,5,7
58,AEY,65.6561,-18.0923,Akureyri Airport,Akureyri,Akureyri,Iceland,12513442,Atlantic/Reykjavik,0,Airports,BLANK,BLANK,6365.0,6.0,BIAR,4,1
59,AFA,-34.5886,-68.4028,San Rafael Airport,San Rafael,Mendoza,Argentina,12510556,America/Buenos_Aires,0,Airports,BLANK,BLANK,7513.0,2444.0,SAMR,2,1
60,AFL,-9.8661,-56.1044,Alta Floresta Airport,Alta Floresta,Mato Grosso,Brazil,12511017,America/Campo_Grande,0,Airports,BLANK,BLANK,5249.0,288.0,SBAT,2,2
61,AFS,41.6136,64.2331,Zarafshan Airport,Zarafshan,Nawoiy,Uzbekistan,2272667,Asia/Samarkand,0,Airports,BLANK,BLANK,,,BLANK,1,1
62,AFT,-9.18333,160.95,Afutara Aerodrome,Afutara,Malaita,Solomon Islands,1020505,Pacific/Guadalcanal,0,Airports,BLANK,BLANK,,,BLANK,1,1
63,AFZ,36.1903,57.7094,Sabzevar Airport,Sabzevar,Khorasan,Iran,12513753,Asia/Tehran,0,Airports,BLANK,BLANK,10428.0,3010.0,BLANK,1,1
64,AGA,30.3833,-9.55,Almassira Airport,Agadir,Agadir,Morocco,12523043,Africa/Casablanca,0,Airports,BLANK,BLANK,9547.0,88.0,GMAD,15,16
65,AGF,44.1736,0.59223,La Garenne Airport,Laplume,Aquitaine,France,12512903,Europe/Paris,0,Airports,BLANK,BLANK,7103.0,203.0,LFBA,1,1
66,AGH,56.2873,12.8675,Angelholm Airport,Angelholm,Skane,Sweden,23319131,Europe/Stockholm,0,Airports,BLANK,http://www.lfv.se/templates/LFV_AirportStartPage____4777.aspx,6562.0,65.0,ESTA,4,3
67,AGL,-9.33333,149.15,Wanigela,Wanigela,Northern,Papua New Guinea,1061994,Pacific/Port_Moresby,0,Airports,BLANK,BLANK,3280.0,50.0,BLANK,1,1
68,AGM,65.6667,-37.6667,Angmagssalik Airport,Angmassalik,Ostgronland,Greenland,12523853,America/Godthab,0,Airports,BLANK,BLANK,,,BGAM,1,1
69,AGN,57.4996,-134.577,Angoon Airport,Angoon,Alaska,United States,12524552,America/Anchorage,0,Airports,BLANK,BLANK,,1.0,PAGN,1,1
70,AGP,36.6749,-4.49298,Malaga Airport,Malaga,Andalucia,Spain,23232917,Europe/Madrid,+34 952 048 838,Airports,BLANK,http://www.aena.es/csee/Satellite?cid=1048858947193&pagename=Est,10500.0,52.0,LEMG,106,59
71,AGR,27.1632,77.9788,Agra Airport,Agra,Uttar Pradesh,India,12513528,Asia/Kolkata,0,Airports,BLANK,BLANK,9000.0,551.0,VIAG,2,1
72,AGS,33.3735,-81.9732,Bush Field Airport,Augusta,Georgia,United States,12518987,America/New_York,0,Airports,BLANK,BLANK,8001.0,145.0,KAGS,2,8
73,AGT,-25.5266,-54.6226,Alejo Garcia Airport,Presidente Franco,Alto Paraná,Paraguay,12523540,America/Asuncion,0,Airports,BLANK,BLANK,,,SGES,3,4
74,AGU,21.7047,-102.317,Aguascalientes Airport,Aguascalientes,Aguascalientes,Mexico,12514821,America/Mexico_City,0,Airports,BLANK,BLANK,4921.0,6112.0,MMAS,8,11
75,AGV,9.55194,-69.2367,Acarigua,Acarigua,Portuguesa,Venezuela,12522827,America/Caracas,0,Airports,BLANK,BLANK,5905.0,640.0,SVAC,1,1
76,AGX,10.8415,72.175,Agatti Island Airport,Agatti Island,Lakshadweep,India,12467998,Asia/Kolkata,+91 4894-42217,Airports,BLANK,BLANK,1204.0,,VOAT,1,1
77,AHB,18.24,42.6556,Abha Airport,Hajlah,Asir,Saudi Arabia,12517317,Asia/Riyadh,0,Airports,BLANK,BLANK,10991.0,6857.0,OEAB,6,2
78,AHC,40.2664,-120.151,Amedee Army Air Field,Herlong,California,United States,12518602,America/Los_Angeles,0,Military Airport,BLANK,BLANK,,,KAHC,1,1
79,AHE,-14.5,-1.3,Ahe Airport,Ahe,Tuamotu-Gambier,French Polynesia,24549702,Pacific/Midway,0,Airports,BLANK,BLANK,,,BLANK,3,1
80,AHO,40.6319,8.29279,Alghero Airport,Alghero,Sardinia,Italy,12513798,Europe/Rome,0,Airports,BLANK,BLANK,9842.0,88.0,LIEA,23,11
81,AHS,15.4534,-84.4041,Ahuas Airport,Auas,Gracias a Dios,Honduras,12524351,America/Tegucigalpa,0,Airports,BLANK,BLANK,2460.0,98.0,BLANK,1,1
82,AHU,35.1781,-3.8383,Cote du Rif Airport,Al Hoceima,Al Hoceima,Morocco,12514784,Africa/Casablanca,0,Airports,BLANK,BLANK,7087.0,89.0,GMTA,2,1
83,AIA,42.0622,-102.81,Alliance Municipal Airport,Alliance,Nebraska,United States,12518583,America/Denver,0,Airports,BLANK,BLANK,9202.0,3929.0,KAIA,3,3
84,AIN,70.6139,-159.857,Wainwright Airport,Wainwright,Alaska,United States,12522307,America/Anchorage,0,Airports,BLANK,BLANK,2200.0,25.0,PAWT,2,1
85,AIT,-18.8299,-159.765,Aitutaki Airport,Aitutaki,Aitutaki,Cook Islands,24549676,Pacific/Rarotonga,0,Airports,BLANK,BLANK,5981.0,14.0,NCAI,1,2
86,AIU,-20.0333,-158.1,Atiu Island,Atiu Island,Atiu,Cook Islands,12523056,Pacific/Rarotonga,0,Airports,BLANK,BLANK,2648.0,200.0,NCAT,1,1
87,AJA,41.9204,8.79778,Campo Dell Oro Airport,Ajaccio,Corsica,France,12512869,Europe/Paris,0,Airports,BLANK,BLANK,6972.0,16.0,LFKJ,18,6
88,AJF,29.7897,40.1039,Al Jouf Airport,Sakakah,Al Jawf,Saudi Arabia,12517324,Asia/Riyadh,0,Airports,BLANK,BLANK,12008.0,2261.0,OESK,6,1
89,AJI,39.7239,43.0618,Agri Airport,Agrı,Ağrı,Turkey,12523340,Europe/Istanbul,0,Airports,BLANK,BLANK,,,LTCO,2,1
90,AJL,23.7361,92.8083,Aizwal Airport,Aizawl,Mizoram,India,12513530,Asia/Kolkata,0,Airports,BLANK,BLANK,3131.0,1000.0,VEAZ,3,2
91,AJN,-12.2234,44.3709,Comoros,Anjouan,Anjouan,Comoros,23424786,Indian/Comoro,0,Airports,BLANK,BLANK,4429.0,62.0,FMCV,5,1
92,AJR,65.592,19.2647,Arvidsjaur Airport,Arvidsjaur,Norrbotten,Sweden,22656498,Europe/Stockholm,0,Airports,BLANK,BLANK,,,ESNX,2,3
93,AJU,-10.985,-37.0733,Santa Maria Airport,Aracaju,Sergipe,Brazil,12511305,America/Belem,0,Airports,BLANK,BLANK,5372.0,26.0,SBAR,5,3
94,AKA,32.7026,108.912,Ankang Airport,Ankang,Shaanxi,China,12511979,Asia/Shanghai,0,Airports,BLANK,BLANK,,,ZLAK,1,1
95,AKB,52.2217,-174.204,Atka Airport,Atka,Alaska,United States,12518685,America/Adak,0,Airports,BLANK,BLANK,3100.0,33.0,BLANK,1,2
96,AKF,24.1819,23.3189,Kufra Airport,Kufrah,Al Kufrah,Libya,12514656,Africa/Tripoli,0,Airports,BLANK,BLANK,12007.0,1367.0,HLKF,1,2
97,AKI,60.8866,-161.218,Akiak Airport,Bethel,Alaska,United States,12524554,America/Anchorage,0,Airports,BLANK,BLANK,2000.0,22.0,BLANK,1,2
98,AKJ,43.665,142.453,Asahikawa Airport,Asahikawa-shi,Hokkaido Prefecture,Japan,28360516,Asia/Tokyo,0,Airports,BLANK,BLANK,6560.0,709.0,RJEC,4,5
99,AKK,56.95,-154.167,Akhiok Airport,Kodiak,Alaska,United States,12524555,America/Anchorage,0,Airports,BLANK,BLANK,2170.0,50.0,PAKH,1,1
100,AKL,-37.0085,174.782,Auckland International Airport,Manukau City,Auckland,New Zealand,12515151,Pacific/Auckland,+64 9 256 8899,Airports,BLANK,http://www.auckland-airport.co.nz/,10800.0,23.0,NZAA,52,35
101,AKN,58.6775,-156.655,King Salmon Airport,King Salmon,Alaska,United States,12520466,America/Anchorage,0,Airports,BLANK,BLANK,8500.0,57.0,PAKN,14,7
102,AKP,68.1916,-151.79,Anaktuvuk Pass Airport,Anaktuvuk Pass,Alaska,United States,12524556,America/Anchorage,0,Airports,BLANK,BLANK,5500.0,2100.0,PAKP,3,4
103,AKS,-27.6667,27.3167,Kroonstad Airport,Kroonstad,Free State,South Africa,12517431,Africa/Johannesburg,0,Airports,BLANK,BLANK,,,FAKS,1,1
104,AKU,41.171,80.1982,Aksu Airport,Aksu,Xinjiang,China,12511976,Asia/Kashgar,0,Airports,BLANK,BLANK,,,ZWAK,1,1
105,AKV,60.8142,-78.1509,Akulivik Airport,Chisasibi,Quebec,Canada,12524039,America/Iqaluit,0,Airports,BLANK,BLANK,,,CYKO,2,1
106,AKX,50.2362,57.2115,Aktyubinsk Airport,Aqtobe,Aqtobe,Kazakhstan,12514256,Asia/Aqtobe,0,Airports,BLANK,BLANK,10170.0,722.0,UATT,4,3
107,AKY,20.1303,92.8803,Sittwe Airport,Sittwe,Rakhine State,Myanmar,12510936,Asia/Rangoon,0,Airports,BLANK,BLANK,6000.0,28.0,VYSW,3,3
108,ALA,43.3608,77.0319,Alma Ata Airport,Almaty,Almaty,Kazakhstan,12514259,Asia/Almaty,0,Airports,BLANK,BLANK,14427.0,2234.0,UAAA,44,36
109,ALB,42.7426,-73.809,Albany International Airport,Latham,New York,United States,12518554,America/New_York,518-242-2222,Airports,BLANK,http://www.albanyairport.com,7200.0,285.0,KALB,27,27
110,ALC,38.2844,-0.5576,Alicante Airport,Elx,Valencia,Spain,22412043,Europe/Madrid,0,Airports,BLANK,BLANK,9842.0,141.0,LEAL,91,37
111,ALF,69.9793,23.3571,Alta Airport,Alta,Finnmark Fylke,Norway,12515099,Europe/Oslo,0,Airports,BLANK,BLANK,5249.0,9.0,ENAT,7,3
112,ALG,36.6993,3.21935,Houari Boumediene Airport,Algiers,Alger,Algeria,12510331,Africa/Algiers,0,Airports,BLANK,http://www.egsa.dz,11483.0,82.0,DAAG,62,20
113,ALH,-34.9447,117.808,Albany Airport,Albany,Western Australia,Australia,12510582,Australia/Perth,0,Airports,BLANK,BLANK,5250.0,232.0,YABA,1,1
114,ALM,32.8407,-105.994,Alamogordo White Sands Regional Airport,Alamogordo,New Mexico,United States,12518553,America/Denver,0,Airports,BLANK,BLANK,7005.0,4197.0,KALM,1,1
115,ALO,42.5509,-92.3951,Waterloo Municipal Airport,Waterloo,Iowa,United States,12522347,America/Chicago,0,Airports,BLANK,BLANK,8401.0,873.0,KALO,1,4
116,ALP,36.1808,37.2267,Aleppo International Airport,Djibrine,H'alab,Syria,12517695,Asia/Damascus,0,Airports,BLANK,BLANK,9908.0,1276.0,OSAP,19,13
117,ALS,37.4444,-105.865,San Luis Valley Regional Airport,Alamosa,Colorado,United States,12521726,America/Denver,0,Airports,BLANK,BLANK,8499.0,7535.0,KALS,1,3
118,ALW,46.0879,-118.283,Walla Walla Regional Airport,Walla Walla,Washington,United States,12522317,America/Los_Angeles,0,Airports,BLANK,BLANK,7186.0,1205.0,KALW,1,4
119,ALY,31.1845,29.9491,An-Nuzhah Airport,Alexandria,Al Iskandariyah,Egypt,23388264,Africa/Cairo,0,Airports,BLANK,BLANK,7021.0,,HEAX,19,15
120,ALZ,56.8988,-154.246,Alitak Seaplane Base,Alitak,Alaska,United States,12524557,America/Anchorage,0,Sea Plane Base,BLANK,BLANK,,1.0,BLANK,1,1
121,AMA,35.2177,-101.706,Amarillo International Airport,Amarillo,Texas,United States,12518598,America/Chicago,0,Airports,BLANK,BLANK,13502.0,3606.0,KAMA,7,10
122,AMD,23.0728,72.6328,Sardar Vallabhbhai Patel International Airport,Ahmedabad,Gujarat,India,12513529,Asia/Kolkata,0,Airports,BLANK,BLANK,7500.0,184.0,VAAH,16,15
123,AMH,6.01327,37.5405,Ethiopia,Arba Mintch,Gamo Gofa,Ethiopia,23424808,Africa/Addis_Ababa,0,Airports,BLANK,BLANK,3999.0,4000.0,HAAM,1,1
124,AMI,-8.562,116.098,Selaparang,Mataram,Nusa Tenggara Barat,Indonesia,12513504,Asia/Makassar,0,Airports,BLANK,BLANK,5249.0,48.0,WRRA,6,7
125,AMM,31.7231,35.9936,Queen Alia International Airport,Amman,'Amman,Jordan,12514059,Asia/Amman,0,Airports,BLANK,BLANK,12008.0,2395.0,OJAI,62,41
126,AMQ,-3.7067,128.078,Pattimura Airport,Ambon,Maluku,Indonesia,12513492,Asia/Jakarta,0,Airports,BLANK,BLANK,6070.0,33.0,WAPP,5,3
127,AMS,52.3122,4.77511,Schiphol Airport,Schiphol Zuid,North Holland,Netherlands,22386730,Europe/Amsterdam,+31-207940800,Airports,BLANK,http://www.schiphol.com/,12467.0,-11.0,EHAM,284,118
128,AMV,69.7638,61.5586,Amderma Airport,Nar'yan-Mar,Nenetskiy Avtonomnyy Okrug,Russia,12515701,Europe/Moscow,0,Airports,BLANK,BLANK,,,ULDD,1,1
129,AMY,38.4819,-100.608,Ambatomainty,Ambatomainty,Fianarantsoa,Madagascar,1489538,Indian/Antananarivo,0,Airports,BLANK,BLANK,3010.0,1050.0,BLANK,2,1
130,ANC,61.1767,-149.961,Anchorage International Airport,Anchorage,Alaska,United States,12518613,America/Anchorage,(907) 266-2526,Airports,BLANK,http://www.dot.state.ak.us/anc/index.shtml,10897.0,144.0,PANC,62,47
131,ANE,47.5603,-0.312222,Aéroport d'Angers-Marcé,Seiches-sur-le-Loir,Pays de la Loire,France,22868196,Europe/Paris,0,Airports,BLANK,BLANK,4052.0,184.0,LFRA,1,1
132,ANF,-23.44,-70.4419,Cerro Moreno International Airport,Antofagasta,Antofagasta,Chile,12512312,America/Santiago,0,Airports,BLANK,BLANK,8527.0,460.0,SCFA,7,5
133,ANG,45.7274,0.21835,Brie Champniers Airport,Champniers,Poitou-Charentes,France,12512864,Europe/Paris,0,Airports,BLANK,BLANK,2723.0,289.0,LFBU,1,1
134,ANI,61.5742,-159.535,Aniak Airport,Bethel,Alaska,United States,12524558,America/Anchorage,0,Airports,BLANK,BLANK,6000.0,88.0,PANI,6,8
135,ANM,-18.7772,46.8543,Madagascar,Antalaha,,Madagascar,23424883,Indian/Antananarivo,0,Airports,BLANK,BLANK,3914.0,20.0,FMNH,3,1
136,ANR,51.1896,4.45236,Deurne Airport,Antwerp,Antwerp,Belgium,22028955,Europe/Brussels,0,Airports,BLANK,BLANK,4839.0,39.0,EBAW,3,2
137,ANU,17.1375,-61.79,V C Bird International Airport,Carlisle,Saint George,Antigua and Barbuda,12510300,America/Antigua,0,Airports,BLANK,BLANK,9000.0,62.0,TAPA,28,14
138,ANV,62.65,-160.217,Anvik Airport,Anvik,Alaska,United States,12524559,America/Nome,0,Airports,BLANK,BLANK,2880.0,325.0,PANV,2,3
139,ANX,69.3088,16.1236,Andoya Airport,Andenes,Nordland Fylke,Norway,12515100,Europe/Oslo,0,Airports,BLANK,BLANK,8005.0,46.0,ENAN,4,1
140,AOC,50.9794,12.5111,Altenburg Nobitz,Altenburg,Thuringia,Germany,12597007,Europe/Berlin,0,Airports,BLANK,http://www.flughafen-altenburg.de,2235.0,641.0,EDAC,2,1
141,AOE,39.7905,30.5172,Anadolu University Airport,Eskişehir,Eskişehir,Turkey,12523341,Europe/Istanbul,0,Airports,BLANK,BLANK,,,BLANK,2,2
142,AOI,43.6158,13.3634,Falconara Airport,Falconara Marittima,Marche,Italy,12513819,Europe/Rome,0,Airports,BLANK,http://www.ancona-airport.com,9810.0,50.0,LIPY,12,16
143,AOJ,40.7357,140.69,Aomori Airport,Aomori-shi,Aomori Prefecture,Japan,12523065,Asia/Tokyo,0,Airports,BLANK,BLANK,4590.0,662.0,RJSA,6,3
144,AOK,35.4239,27.1472,Karpathos Airport,Karpathos,Notio Aigaio,Greece,12513293,Europe/Athens,0,Airports,BLANK,BLANK,6890.0,23.0,LGKP,6,3
145,AOO,40.2952,-78.324,Altoona-Blair County Airport,Martinsburg,Pennsylvania,United States,12518593,America/New_York,0,Airports,BLANK,BLANK,5466.0,1504.0,KAOO,2,1
146,AOR,6.1947,100.404,Sultan Abdul Halim Airport,Kepala Batas,Kedah,Malaysia,12515009,Asia/Kuala_Lumpur,0,Airports,BLANK,BLANK,6600.0,15.0,WMKA,1,2
147,AOS,57.4672,-153.839,Amook Bay Seaplane Base,Amook,Alaska,United States,12524560,America/Anchorage,0,Airports,BLANK,BLANK,,,BLANK,2,1
148,APA,39.5752,-104.845,Centennial Airport,Englewood,Colorado,United States,12519112,America/Denver,0,Other Airport,BLANK,BLANK,10002.0,5883.0,KAPA,0,0
149,APF,26.1483,-81.7745,Naples Municipal Airport,Naples,Florida,United States,12521078,America/New_York,0,Airports,BLANK,BLANK,5000.0,9.0,KAPF,2,1
150,APK,-8.64687,-131.787,French Polynesia,Apataki,BLANK,French Polynesia,23424817,Pacific/Midway,0,Airports,BLANK,BLANK,2756.0,3.0,NTGD,2,1
151,APL,-15.1,39.2814,Nampula Airport,Nampula,Nampula,Mozambique,12515027,Africa/Maputo,0,Airports,BLANK,BLANK,6562.0,1457.0,FQNP,5,2
152,APN,45.07,-83.5683,Alpena County Regional Airport,Alpena,Michigan,United States,12518585,America/New_York,0,Airports,BLANK,BLANK,9001.0,689.0,KAPN,2,4
153,APO,7.88361,-76.6321,Apartado Airport,Apartadó,Antioquia,Colombia,12523474,America/Bogota,0,Airports,BLANK,BLANK,,,BLANK,1,3
154,APW,-13.8255,-171.993,Faleolo Airport,Apia,A`ana,Samoa,12523066,Pacific/Apia,0,Airports,BLANK,BLANK,8858.0,58.0,NSFA,7,6
155,AQG,30.5167,117.033,Anqing Airport,Anqing,Anhui,China,12523067,Asia/Shanghai,0,Airports,BLANK,BLANK,,,ZSAQ,2,2
156,AQI,28.3317,46.13,Hafr Al Batin Airport,Qaisumah,BLANK,Saudi Arabia,12517338,Asia/Riyadh,0,Airports,BLANK,BLANK,7054.0,1175.0,BLANK,2,1
157,AQJ,29.6119,35.0178,Aqaba International Airport,Aqaba,Al `Aqabah,Jordan,12514051,Asia/Amman,0,Airports,BLANK,BLANK,9843.0,174.0,OJAQ,10,5
158,AQP,-16.3372,-71.5692,Rodriguez Ballon Airport,Arequipa,Arequipa,Peru,12515218,America/Lima,0,Airports,BLANK,BLANK,9777.0,8365.0,SPQU,3,6
159,ARC,68.1167,-145.583,Arctic Village Airport,Arctic Village,Alaska,United States,12524562,America/Anchorage,0,Airports,BLANK,BLANK,4450.0,2086.0,PARC,3,3
160,ARD,35.1437,-93.1848,Alor Island,Alor Island,BLANK,Indonesia,23424846,Asia/Jakarta,0,Airports,BLANK,BLANK,2952.0,39.0,BLANK,1,1
161,ARH,64.4465,40.4242,Arkhangelsk Airport,Arkhangel'sk,Arkhangelrskaya Oblast,Russia,12515724,Europe/Moscow,0,Airports,BLANK,BLANK,,,ULAA,13,5
162,ARI,-18.3458,-70.3358,Chacalluta Airport,Arica,Tarapaca,Chile,12512313,America/Santiago,0,Airports,BLANK,BLANK,7119.0,180.0,SCAR,3,4
163,ARK,-3.36515,36.6738,Arusha Airport,Arusha,Arusha,Tanzania,24554855,Africa/Dar_es_Salaam,0,Airports,BLANK,BLANK,,,HTAR,1,2
164,ARM,-30.5308,151.618,Armidale Airport,Armidale,New South Wales,Australia,12510590,Australia/Sydney,0,Airports,BLANK,BLANK,5702.0,3556.0,YARM,1,1
165,ARN,59.6521,17.9317,Arlanda Airport,Märst,Stockholm,Sweden,12517610,Europe/Stockholm,+46 8 797 6000,Airports,BLANK,http://www.arlanda.se,10827.0,123.0,ESSA,126,76
166,ART,43.9942,-76.0232,Watertown International Airport,Dexter,New York,United States,12522348,America/New_York,0,Airports,BLANK,BLANK,5000.0,325.0,KART,1,1
167,ARU,-21.1436,-50.4261,Aracatuba Airport,Araçatuba,Sao Paulo,Brazil,12511026,America/Sao_Paulo,0,Airports,BLANK,BLANK,6955.0,1358.0,SBAU,2,1
168,ARV,45.9296,-89.7371,Lakelan-Noble F. Lee Memerial Field Airport,Woodruff,Wisconsin,United States,12521141,America/Chicago,0,Airports,BLANK,BLANK,5000.0,1628.0,KARV,2,1
169,ARW,46.1805,21.2609,Ceala Airport,Arad,Arad,Romania,12515518,Europe/Bucharest,0,Airports,BLANK,http://www.aeroportularad.ro/index_en.html,6562.0,351.0,LRAR,5,1
170,ASA,31.4124,-97.0528,Assab,Assab,BLANK,Ethiopia,23424808,Africa/Addis_Ababa,0,Airports,BLANK,BLANK,7546.0,46.0,HHSB,1,1
171,ASB,37.9842,58.3294,Ashkhabad Northwest Airport,Ashgabat,Ashkhabad,Turkmenistan,12517960,Asia/Ashgabat,0,Airports,BLANK,BLANK,9842.0,689.0,UTAA,15,8
172,ASD,24.6978,-77.7961,Andros Town Airport,Fresh Creek,Central Andros,Bahamas,12510859,America/Nassau,0,Airports,BLANK,BLANK,4000.0,5.0,MYAF,1,1
173,ASE,39.2197,-106.864,Aspen Pitkin County Airport-Sardy Field,Aspen,Colorado,United States,12518679,America/Denver,0,Airports,BLANK,BLANK,7003.0,7815.0,KASE,5,5
174,ASF,46.2971,48.0515,Astrakhan Southeast Airport,Astrakhan',Astrakhanskaya Oblast,Russia,12515745,Europe/Samara,0,Airports,BLANK,BLANK,,,URWA,7,7
175,ASI,-7.93586,-14.4081,Wideawake Fld,"Georgetown, Ascension Island",Ascension,St. Helena,12466481,Atlantic/St_Helena,0,Airports,BLANK,BLANK,,,FHAW,2,1
176,ASJ,28.431,129.712,Amami Airport,Amami O Shima,Mie Prefecture,Japan,12513942,Asia/Tokyo,0,Airports,BLANK,BLANK,4070.0,59.0,RJKA,3,2
177,ASM,15.2906,38.9103,Yohannes Iv International Airport,Asmara,Maekel,Eritrea,12512750,Africa/Asmara,0,Airports,BLANK,BLANK,9843.0,7661.0,HHAS,9,7
178,ASO,10.0611,34.5344,Ethiopia,Asosa,Welega,Ethiopia,23424808,Africa/Addis_Ababa,0,Airports,BLANK,BLANK,3346.0,5260.0,HASO,1,1
179,ASP,-23.802,133.892,Alice Springs Airport,Alice Springs,Northern Territory,Australia,12510584,Australia/Darwin,0,Airports,BLANK,BLANK,8000.0,1789.0,YBAS,8,3
180,ASR,38.7708,35.4939,Erkilet Airport,Kayseri,Kayseri,Turkey,12517886,Europe/Istanbul,0,Airports,BLANK,BLANK,5500.0,3571.0,LTAU,7,2
181,ASU,-25.2397,-57.5189,Silvio Pettirossi International Airport,Colonia Mariano Roque Alonso,Central,Paraguay,12515187,America/Asuncion,0,Airports,BLANK,BLANK,11000.0,292.0,SGAS,9,8
182,ASV,-2.63333,37.25,Amboseli,Amboseli,Rift Valley,Kenya,1528663,Africa/Nairobi,0,Airports,BLANK,BLANK,3281.0,3755.0,HKAM,1,1
183,ASW,23.965,32.8217,Aswan Airport,Aswan,Aswan,Egypt,12512666,Africa/Cairo,0,Airports,BLANK,BLANK,11155.0,656.0,HESN,5,1
184,ATB,17.7,33.9833,Atbara,Atbara,Nahr an Nil,Sudan,1431005,Africa/Khartoum,0,Airports,BLANK,BLANK,5905.0,1181.0,HSAT,1,1
185,ATC,24.6287,-75.6734,Arthur's Town Airport,Arthur Town,Cat Island,Bahamas,12524017,America/Nassau,0,Airports,BLANK,BLANK,,,MYCA,1,1
186,ATD,-8.86667,161.033,Atoifi,Atoifi,Malaita,Solomon Islands,1020493,Pacific/Noumea,0,Airports,BLANK,BLANK,1968.0,,BLANK,1,1
187,ATH,37.8937,23.7235,Eleftherios Venizelos International Airport,Athens,Attiki,Greece,12513286,Europe/Athens,0030 210 353 0001,Airports,BLANK,http://www.aia.gr,13123.0,308.0,LGAV,117,81
188,ATK,70.4639,-157.331,Atqasuk Airport,Atqasuk,Alaska,United States,12524564,America/Anchorage,0,Airports,BLANK,BLANK,1250.0,65.0,PATQ,2,1
189,ATL,33.6558,-84.4333,Hartsfield-Jackson Atlanta International Airport,Atlanta,Georgia,United States,12522118,America/New_York,(654) 57 8833,Airports,BLANK,http://www.atlanta-airport.com/,11889.0,1026.0,KATL,253,60
190,ATM,-3.2506,-52.2517,Altamira Airport,Altamira,Para,Brazil,12511018,America/Manaus,0,Airports,BLANK,BLANK,6572.0,367.0,SBHT,2,1
191,ATQ,31.7131,74.7955,Raja Sansi Airport,Raja Sansi,Punjab,India,12513536,Asia/Kolkata,0,Airports,BLANK,BLANK,9250.0,754.0,VIAR,10,10
192,ATR,20.5067,-13.0436,Atar Airport,Atar,Adrar,Mauritania,12514800,Africa/Nouakchott,0,Airports,BLANK,BLANK,9843.0,758.0,GQPA,2,1
193,ATT,60.865,-162.276,Atmautluak Airport,Atmautluak,Alaska,United States,12524566,America/Anchorage,0,Airports,BLANK,BLANK,2250.0,17.0,BLANK,3,3
194,ATW,44.2603,-88.5111,Outagamie County Airport,Appleton,Wisconsin,United States,12521262,America/Chicago,0,Airports,BLANK,http://www.atwairport.com/,7001.0,918.0,KATW,8,11
195,ATY,44.9216,-97.1609,Watertown Municipal Airport,Watertown,South Dakota,United States,12522349,America/Chicago,0,Airports,BLANK,BLANK,6895.0,1748.0,KATY,3,4
196,ATZ,27.0411,31.0114,Asyut Airport,Asyut,Asyut,Egypt,12512667,Africa/Cairo,0,Airports,BLANK,BLANK,9843.0,774.0,HEAT,5,5
197,AUA,12.5022,-70.0139,Reina Beatrix International Airport,Aruba,BLANK,Aruba,12510298,America/Aruba,0,Airports,BLANK,http://www.airportaruba.com,9000.0,59.0,TNCA,25,24
198,AUC,7.0703,-70.7406,Santiago Perez Airport,Arauca,Caldas,Colombia,12512414,America/Bogota,0,Airports,BLANK,BLANK,6888.0,400.0,SKUC,2,2
199,AUG,44.3181,-69.7933,Augusta State Airport,Augusta,Maine,United States,12518700,America/New_York,0,Airports,BLANK,BLANK,5140.0,353.0,KAUG,3,1
200,AUH,24.4331,54.6489,Abu Dhabi International Airport,Abu Dhabi,Abu Dhabi,United Arab Emirates,12517727,Asia/Dubai,+971 2-5757500,Airports,BLANK,http://www.dcaauh.gov.ae/english/abudhabi/introduction.htm#,10499.0,15.0,OMAA,76,45
201,AUK,62.6833,-164.633,Alakanuk Airport,Alakanuk,Alaska,United States,12524567,America/Anchorage,0,Airports,BLANK,BLANK,2400.0,10.0,BLANK,3,2
202,AUQ,-9.7719,-139.015,Atuona Airport,Atuona,Marquesas Islands,French Polynesia,12523068,Pacific/Midway,0,Airports,BLANK,BLANK,3691.0,1473.0,BLANK,4,1
203,AUR,44.8984,2.41982,Aurillac Airport,Aurillac,Auvergne,France,12512848,Europe/Paris,0,Other Airport,BLANK,BLANK,5577.0,2096.0,LFLW,1,1
204,AUS,30.2027,-97.6653,Austin-Bergstrom International Airport,Austin,Texas,United States,23418445,America/Chicago,0,Airports,BLANK,http://www.abia.org/,12248.0,542.0,KAUS,50,37
205,AUX,-7.2281,-48.2403,Araguaina Airport,Araguaina,Norte,Brazil,12511029,America/Araguaina,0,Airports,BLANK,BLANK,5905.0,771.0,BLANK,3,2
206,AUY,-20.1909,169.825,Vanuatu,Aneityum,Tafea,Vanuatu,23424907,Pacific/Efate,0,Airports,BLANK,BLANK,2001.0,10.0,BLANK,1,1
207,AVL,35.4349,-82.5373,Asheville Regional Airport,Fletcher,North Carolina,United States,12518672,America/New_York,0,Airports,BLANK,http://www.flyavl.com/,8001.0,2165.0,KAVL,7,10
208,AVN,43.9056,4.89951,Avignon-Caumont Airport,Avignon,Provence-alpes-cote d'Azur,France,12523803,Europe/Paris,0,Airports,BLANK,BLANK,4593.0,118.0,LFMV,4,2
209,AVP,41.3354,-75.7294,Wilkes Barre Scranton International Airport,Pittston,Pennsylvania,United States,12522441,America/New_York,0,Airports,BLANK,BLANK,7501.0,957.0,KAVP,8,8
210,AVU,-9.85,160.417,Avu Avu,Avu Avu,Guadalcanal,Solomon Islands,1020506,Pacific/Guadalcanal,0,Airports,BLANK,BLANK,2210.0,8.0,BLANK,1,1
211,AVV,-38.0408,144.468,Avalon Airport,Lara,Victoria,Australia,12510591,Australia/Melbourne,0,Other Airport,BLANK,BLANK,10000.0,34.0,YMAV,4,2
212,AWB,-8.01667,142.75,Awaba,Awaba,BLANK,Papua New Guinea,23424926,Pacific/Port_Moresby,0,Airports,BLANK,BLANK,2300.0,,BLANK,2,1
213,AWD,-19.2501,169.598,Aniwa Airport,Aniwa,Tafea,Vanuatu,12515050,Pacific/Efate,0,Airports,BLANK,BLANK,3085.0,69.0,NVVB,1,1
214,AWZ,31.3378,48.7597,Ahvaz Airport,Ahvaz,Khuzestan,Iran,12513699,Asia/Tehran,0,Airports,BLANK,BLANK,11100.0,60.0,OIAW,7,6
215,AXA,18.2103,-63.0575,Wallblake Airport,Anguilla,The Valley,Anguilla,12510830,America/Anguilla,0,Airports,BLANK,BLANK,3600.0,108.0,TQPF,5,4
216,AXD,40.8567,25.9567,Alexandroupolis Airport,Alexandroupolis,Anatoliki Makedonia,Greece,12513282,Europe/Athens,0,Airports,BLANK,BLANK,8530.0,24.0,LGAL,2,2
217,AXM,4.4564,-75.7681,El Eden Airport,La Tebaida,Quindio,Colombia,12512374,America/Bogota,0,Airports,BLANK,BLANK,7825.0,3960.0,SKAR,2,4
218,AXP,22.4441,-73.9775,Spring Point Airport,Spring Point,Acklins,Bahamas,12510881,America/Nassau,0,Airports,BLANK,BLANK,5000.0,11.0,MYAP,2,1
219,AXR,-15.5098,-146.538,French Polynesia,Arutua,Tuamotu-Gambier,French Polynesia,23424817,Pacific/Midway,0,Airports,BLANK,BLANK,2230.0,7.0,NTGU,4,1
220,AXT,39.6153,140.219,Akita Airport,Akita-shi,Akita Prefecture,Japan,12513940,Asia/Tokyo,0,Airports,BLANK,BLANK,8200.0,313.0,RJSK,7,5
221,AXU,14.147,38.7726,Axum,Axum,Tigray,Ethiopia,1313280,Africa/Addis_Ababa,0,Airports,BLANK,BLANK,5347.0,7000.0,HAAX,3,1
222,AYQ,-25.1872,130.977,Ayers Rock Airport,Ayers Rock,Northern Territory,Australia,12510821,Australia/Darwin,0,Airports,BLANK,BLANK,6560.0,1626.0,YAYE,5,2
223,AYT,36.9022,30.7917,Antalya Airport,Antalya,Antalya,Turkey,12517869,Europe/Istanbul,0,Airports,BLANK,BLANK,11243.0,167.0,LTAI,51,24
224,AZA,33.3078,-111.656,Phoenix-Mesa Gateway Airport,Phoenix,Arizona,United States,2449808,America/Phoenix,0,Airports,BLANK,http://www.flywga.org/,10.0,1.0,KIWA,8,1
225,AZD,31.905,54.2786,Yazd Airport,Yezd,Yazd,Iran,12513771,Asia/Tehran,0,Airports,BLANK,BLANK,8530.0,4066.0,OIYY,2,3
226,AZN,40.7324,72.2931,Andizhan Airport,Andijon,Andijon,Uzbekistan,12522576,Asia/Tashkent,0,Airports,BLANK,BLANK,,,UTKA,8,2
227,AZO,42.2398,-85.5563,Kalamazoo-Battle Creek International Airport,Kalamazoo,Michigan,United States,12520414,America/New_York,0,Airports,BLANK,BLANK,6499.0,874.0,KAZO,5,12
228,AZR,27.8378,-0.1864,Touat Airport,Adrar,Adrar,Algeria,12510355,Africa/Algiers,0,Airports,BLANK,BLANK,9843.0,915.0,DAUA,1,1
229,AZS,19.2099,-69.3279,Samana El Catey International Airport,Samana,Samana,Dominican Republic,76414,America/Santo_Domingo,0,Airports,BLANK,BLANK,,,MDEP,6,6
230,BAG,16.3764,120.619,Baguio Airport,Baguio City,Cordillera Administrative Region,Philippines,12515596,Asia/Manila,0,Airports,BLANK,BLANK,5512.0,4239.0,RPUB,1,1
231,BAH,26.2736,50.6234,Bahrain International Airport,Al Muharraq,Al Manamah,Bahrain,23388208,Asia/Bahrain,+973 1732 1997,Airports,BLANK,http://www.bahrainairport.com/bia/index_bia.htm,13002.0,6.0,OBBI,56,49
232,BAL,37.93,41.1167,Batman Airport,Batman,Batman,Turkey,12517873,Europe/Istanbul,0,Airports,BLANK,BLANK,10005.0,1819.0,LTCJ,2,1
233,BAQ,10.8961,-74.7789,Ernesto Cortissoz Airport,Soledad,Atlantico,Colombia,12512376,America/Bogota,0,Airports,BLANK,BLANK,9843.0,94.0,SKBQ,15,9
234,BAS,-7.98333,155.9,Balalae,Balalae,Western,Solomon Islands,1020484,Pacific/Noumea,0,Airports,BLANK,BLANK,3280.0,5.0,BLANK,1,1
235,BAU,-22.345,-49.0531,Bauru Airport,Bauru,Sao Paulo,Brazil,12511049,America/Sao_Paulo,0,Airports,BLANK,BLANK,4921.0,2018.0,SBBU,3,1
236,BAV,40.5679,109.998,Baotou Airport,Baotou,Nei Mongol,China,12511987,Asia/Shanghai,0,Airports,BLANK,BLANK,,,BLANK,8,7
237,BAX,53.3667,83.75,Barnaui West Airport,Barnaul,Altayskiy Kray,Russia,12515778,Asia/Krasnoyarsk,0,Airports,BLANK,BLANK,,,KBAX,11,7
238,BAY,47.6589,23.465,Baia Mare,Baia Mare,BLANK,Romania,866625,Europe/Bucharest,0,Airports,BLANK,BLANK,4593.0,604.0,LRBM,2,2
239,BBA,-45.9167,-71.6869,Balmaceda Airport,Balmaceda,Aisen del General Carlos Ibanez ,Chile,12512305,America/Santiago,0,Airports,BLANK,BLANK,6883.0,1713.0,BLANK,4,3
240,BBI,20.2466,85.8152,Bhubaneswar Airport,Bhubaneswar,Orissa,India,12513553,Asia/Kolkata,0,Airports,BLANK,BLANK,5850.0,146.0,VEBS,5,5
241,BBK,-17.8333,25.1667,Kasane Airport,Kasane,Chobe,Botswana,12523069,Africa/Gaborone,0,Airports,BLANK,BLANK,3150.0,3060.0,FBKE,1,1
242,BBN,3.73333,115.467,Bario Airport,Nanga Medamit,Sarawak,Malaysia,12523070,Asia/Kuala_Lumpur,0,Airports,BLANK,BLANK,2100.0,3480.0,BLANK,2,1
243,BBO,10.3917,44.95,Berbera Airport,Berbera,Woqooyi Galbeed,Somalia,12517527,Africa/Mogadishu,0,Airports,BLANK,BLANK,13615.0,30.0,BLANK,3,1
244,BBS,51.3252,-0.84173,Blackbushe Airport,Camberley,England,United Kingdom,12518042,Europe/London,+44 (0) 1252 879449,Airports,BLANK,http://www.blackbusheairport.co.uk,4436.0,329.0,BLANK,1,1
245,BBU,44.4966,26.087,Aeroportul National Bucuresti-Baneasa,Bucharest,Bucuresti,Romania,23388350,Europe/Bucharest,+40 21 232 0020,Airports,BLANK,BLANK,7218.0,295.0,LRBS,32,5
246,BCA,20.3644,-74.5064,Baracoa Airport,Baracoa,Guantanamo,Cuba,12512452,America/Havana,0,Airports,BLANK,BLANK,5906.0,38.0,BLANK,1,1
247,BCD,10.6444,122.929,Bacolod Airport,Bacolod City,Western Visayas,Philippines,12515595,Asia/Manila,0,Airports,BLANK,BLANK,5932.0,20.0,RPVB,2,3
248,BCI,-23.5635,145.305,Barcaldine Aerodrome,Barcaldine,Queensland,Australia,12510599,Australia/Lindeman,0,Airports,BLANK,BLANK,4510.0,878.0,YBAR,2,1
249,BCL,10.7856,-83.5966,Barra Colorado Airport,Colorado,Limon,Costa Rica,12524312,America/Costa_Rica,0,Airports,BLANK,BLANK,2296.0,10.0,BLANK,1,2
250,BCM,46.5283,26.8997,Luizi Calugara Airport,Bacæu,Bacau,Romania,12515549,Europe/Bucharest,0,Airports,BLANK,BLANK,,,LRBC,4,3
251,BCN,41.3006,2.07976,Barcelona International Airport,El Prat de Llobregat,Catalonia,Spain,22411879,Europe/Madrid,0,Airports,BLANK,http://www.aena.es,11001.0,15.0,LEBL,145,90
252,BDA,32.3675,-64.6903,Bermuda International Airport,St. George,Pembroke,Bermuda,12523071,Atlantic/Bermuda,0,Airports,BLANK,BLANK,9713.0,12.0,TXKF,13,12
253,BDB,-24.9046,152.322,Bundaberg Airport,Bundaberg,Queensland,Australia,12510621,Australia/Brisbane,0,Airports,BLANK,BLANK,5030.0,107.0,BLANK,1,1
254,BDD,-10.1214,142.142,Badu Island Airport,Badu Island,Queensland,Australia,12510593,Australia/Brisbane,0,Airports,BLANK,BLANK,,,BLANK,2,1
255,BDH,26.5333,54.8239,Bandar Lengeh Airport,Bandar Abbas,Hormozgan,Iran,12513704,Asia/Tehran,0,Airports,BLANK,BLANK,6650.0,33.0,BLANK,1,1
256,BDJ,-3.4425,114.757,Syamsuddin Noor Airport,Banjarmasin,Kalimantan Selatan,Indonesia,12513514,Asia/Jakarta,0,Airports,BLANK,BLANK,6135.0,69.0,WRBB,3,6
257,BDL,41.9271,-72.6816,Bradley International Airport,Windsor Locks,Connecticut,United States,12518915,America/New_York,0,Airports,BLANK,BLANK,9502.0,174.0,KBDL,41,31
258,BDO,-6.9017,107.576,Husein Sastranegara Airport,Bandung,Jawa Barat,Indonesia,12513471,Asia/Jakarta,0,Airports,BLANK,BLANK,6519.0,2430.0,WICC,6,3
259,BDP,26.5667,88.0833,Bhadrapur,Bhadrapur,West Bengal,Nepal,2269155,Asia/Kolkata,0,Airports,BLANK,BLANK,5133.0,300.0,BLANK,1,1
260,BDQ,22.3367,73.2264,Vadodara Airport,Vadodara,Gujarat,India,12513692,Asia/Kolkata,0,Airports,BLANK,BLANK,8100.0,123.0,VABO,3,3
261,BDR,41.1636,-73.1283,Igor I Sikorsky Memorial Airport,Stratford,Connecticut,United States,12520279,America/New_York,0,Airports,BLANK,BLANK,4761.0,10.0,KBDR,0,0
262,BDS,40.6626,17.9426,Casale Airport,Brindisi,Puglia,Italy,12513811,Europe/Rome,0,Airports,BLANK,BLANK,8622.0,48.0,LIBR,17,19
263,BDU,69.0589,18.539,Bardufoss Airport,Bardufoss,Troms Fylke,Norway,12515103,Europe/Oslo,+47 77 83 02 00,Airports,BLANK,BLANK,2443.0,252.0,ENDU,1,1
264,BEB,57.4756,-7.37041,Benbecula Airport,Balivanich,Scotland,United Kingdom,22453706,Europe/London,0,Airports,BLANK,BLANK,6017.0,19.0,BLANK,3,3
265,BEG,44.8192,20.3122,Surcin Airport,Surčin,Beograd,Serbia,12517583,Europe/Belgrade,+381 11 209 4000,Airports,BLANK,http://www.beg.aero,11155.0,335.0,LYBE,41,22
266,BEL,-1.3844,-48.4783,Val de Caes International Airport,Belem,Para,Brazil,12511369,America/Belem,0,Airports,BLANK,BLANK,8202.0,52.0,SBBE,12,7
267,BEN,35.6425,-87.1192,Benina Intl,Benghazi,Banghazi,Libya,1352831,Africa/Tripoli,0,Airports,BLANK,BLANK,11800.0,433.0,HLLB,15,6
268,BES,48.4458,-4.41511,Guipavas Airport,Guipavas,Brittany,France,12523072,Europe/Paris,0,Airports,BLANK,BLANK,8202.0,325.0,LFRB,14,9
269,BET,60.7788,-161.847,Bethel Airport,Bethel,Alaska,United States,12518815,America/Nome,0,Airports,BLANK,BLANK,6399.0,131.0,PABE,29,11
270,BEU,-24.3544,139.463,Bedourie Aerodrome,Bedourie,Queensland,Australia,12510603,Australia/Lindeman,0,Airports,BLANK,BLANK,3478.0,300.0,BLANK,2,1
271,BEW,-19.7958,34.9089,Beira Airport,Beira,Sofala,Mozambique,12515014,Africa/Maputo,0,Airports,BLANK,BLANK,7874.0,33.0,FQBR,7,3
272,BEY,33.825,35.4925,Beirut International Airport,Beirut,Jabal Lubnan,Lebanon,23388329,Asia/Beirut,0,Airports,BLANK,http://www.beirutairport.gov.lb/indexflash.html,10663.0,87.0,OLBA,51,47
273,BFD,41.7964,-78.6407,Bradford Regional Airport,Lewis Run,Pennsylvania,United States,12518914,America/New_York,0,Airports,BLANK,BLANK,6499.0,2143.0,KBFD,3,2
274,BFE,52.0,8.5,Bielefeld,Bielefeld,North-Rhine-Westphalia,Germany,20066058,Europe/Berlin,0,Airports,BLANK,BLANK,,,KBFE,4,1
275,BFF,41.8683,-103.597,William B Heilig Field Airport,Scottsbluff,Nebraska,United States,12522448,America/Denver,0,Airports,BLANK,BLANK,8280.0,3965.0,KBFF,2,3
276,BFI,47.5369,-122.304,King County International Airport-Boeing Field,Seattle,Washington,United States,12518877,America/Los_Angeles,0,Airports,BLANK,BLANK,10001.0,17.0,KBFI,6,3
277,BFL,35.4288,-119.044,Kern County-Meadows Field Airport,Bakersfield,California,United States,12520881,America/Los_Angeles,0,Airports,BLANK,BLANK,9100.0,490.0,KBFL,4,3
278,BFN,-29.0942,26.3027,J B M Hertzog Airport,Bloemfontein,Free State,South Africa,12517423,Africa/Johannesburg,0,Airports,BLANK,BLANK,,,FABL,5,2
279,BFS,54.6542,-6.225,Aldergrove Airport,Crumlin,Northern Ireland,United Kingdom,12518031,Europe/London,00 44 (0)28 9448 4848,Airports,BLANK,http://www.belfastairport.com,2780.0,267.0,EGAA,49,14
280,BFV,15.2295,103.253,Buri Ram,Buri Ram,Buriram,Thailand,28341176,Asia/Bangkok,0,Airports,BLANK,BLANK,,,BLANK,1,1
281,BGA,7.1217,-73.1883,Palonegro Airport,Bucaramanga,Santander,Colombia,12512401,America/Bogota,0,Airports,BLANK,BLANK,7415.0,3896.0,SKBG,7,7
282,BGF,4.3961,18.5203,Bangui M Poko Airport,Bangui,Bangui,Central African Republic,12512446,Africa/Bangui,0,Airports,BLANK,BLANK,8530.0,1204.0,FEFF,6,8
283,BGI,13.0719,-59.4939,Grantley Adams International Airport,Bridgetown,Christ Church,Barbados,12510833,America/Barbados,0,Airports,BLANK,BLANK,18000.0,169.0,TBPB,24,16
284,BGM,42.2082,-75.9825,Greater Binghamton Edwin A Link Field Airport,Johnson City,New York,United States,12519598,America/New_York,0,Airports,BLANK,BLANK,6298.0,1630.0,KBGM,3,8
285,BGO,60.2907,5.22065,Bergen Flesland Airport,Blomsterdalen,Hordaland Fylke,Norway,12515104,Europe/Oslo,+47 55 99 80 00,Airports,BLANK,"http://www.avinor.no/English/Airports/Bergen_Airport,_Flesland/",8038.0,165.0,ENBR,37,21
286,BGR,44.8086,-68.8167,Bangor International Airport,Bangor,Maine,United States,12518734,America/New_York,207-992-4600,Airports,BLANK,http://www.flybangor.com,11439.0,192.0,KBGR,10,7
287,BGW,33.3328,44.3639,Al Muthana Airport,Baghdad,Baghdad,Iraq,12513890,Asia/Baghdad,0,Other Airport,BLANK,BLANK,9843.0,112.0,BLANK,3,3
288,BGY,45.6664,9.699,Orio Al Serio Airport,Grassobbio,Lombardy,Italy,22309691,Europe/Rome,035311258,Airports,BLANK,http://www.sacbo.it/,9186.0,779.0,LIME,70,19
289,BHB,44.4461,-68.3615,Hancock County-Bar Harbor Airport,Ellsworth,Maine,United States,12520074,America/New_York,0,Airports,BLANK,BLANK,5196.0,84.0,KBHB,2,1
290,BHD,54.6151,-5.87096,George Best Belfast City Airport,Belfast,Northern Ireland,United Kingdom,23387943,Europe/London,0,Airports,BLANK,BLANK,6000.0,15.0,EGAC,24,24
291,BHE,-41.52,173.87,Woodbourne Airport,Blenheim,Marlborough,New Zealand,12515181,Pacific/Auckland,0,Airports,BLANK,BLANK,4675.0,118.0,NZWB,3,1
292,BHG,15.7636,-84.551,Brus Laguna Airport,Brus Laguna,Gracias a Dios,Honduras,12524352,America/Tegucigalpa,0,Airports,BLANK,BLANK,3280.0,10.0,BLANK,2,1
293,BHH,19.9817,42.6267,Bisha Airport,Bisha,BLANK,Saudi Arabia,12517332,Asia/Riyadh,0,Airports,BLANK,BLANK,10007.0,3829.0,BLANK,2,1
294,BHI,-38.7261,-62.1539,Bahia Blanca Cte Espora Naval Air Base,Punta Alta,Buenos Aires,Argentina,12510461,America/Buenos_Aires,0,Airports,BLANK,BLANK,8365.0,246.0,BLANK,1,1
295,BHJ,23.2875,69.6706,Bhuj Airport,Bhuj,Gujarat,India,12513554,Asia/Kolkata,0,Airports,BLANK,BLANK,8317.0,268.0,VABJ,1,2
296,BHK,39.7948,64.4895,Bukhara Airport,Bukhara,Bukhoro,Uzbekistan,12522588,Asia/Samarkand,0,Airports,BLANK,BLANK,,,UTSB,4,4
297,BHM,33.5604,-86.7492,Birmingham International Airport,Birmingham,Alabama,United States,12518836,America/Chicago,0,Airports,BLANK,BLANK,10000.0,644.0,KBHM,34,24
298,BHO,23.2844,77.3383,Bairagarh Airport,Bhopal,Madhya Pradesh,India,12513540,Asia/Kolkata,0,Airports,BLANK,BLANK,6017.0,1716.0,VABP,4,2
299,BHQ,-32.0031,141.466,Broken Hill Airport,Broken Hill,New South Wales,Australia,12510619,Australia/Melbourne,0,Airports,BLANK,BLANK,8251.0,946.0,YBHI,3,1
300,BHR,25.9173,50.6071,Bharatpur,Bharatpur,Central,Nepal,2269055,Asia/Katmandu,0,Airports,BLANK,BLANK,3800.0,600.0,BLANK,1,1
301,BHS,-33.4121,149.657,Bathurst Airport,Bathurst,New South Wales,Australia,12510601,Australia/Sydney,0,Airports,BLANK,BLANK,5595.0,2434.0,BLANK,1,1
302,BHU,21.7536,72.1867,Bhavnagar Airport,Bhavnagar,Gujarat,India,12513549,Asia/Kolkata,0,Airports,BLANK,BLANK,6300.0,34.0,BLANK,1,2
303,BHV,29.3444,71.7125,Bahawalpur Airport,Bahawalpur,Punjab,Pakistan,12515225,Asia/Karachi,0,Airports,BLANK,BLANK,5000.0,100.0,OPBW,3,1
304,BHX,52.4531,-1.73847,Birmingham International Airport,Birmingham,England,United Kingdom,22454274,Europe/London,+44 (0)8707 335511,Airports,BLANK,http://www.bhx.co.uk/,7398.0,325.0,EGBB,103,45
305,BHY,21.4833,109.083,Beihai,Beihai,Guangxi,China,2166477,Asia/Shanghai,0,Airports,BLANK,BLANK,,,BLANK,5,4
306,BIA,42.5497,9.48341,Poretta Airport,Borgo,Corsica,France,12512955,Europe/Paris,0,Airports,BLANK,BLANK,8235.0,26.0,LFKB,20,8
307,BID,41.1696,-71.58,Block Island State Airport,Block Island,Rhode Island,United States,12524577,America/New_York,0,Airports,BLANK,BLANK,2500.0,105.0,KBID,1,1
308,BII,11.5833,165.383,Enyu Airfield,Bikini Atoll,BLANK,Marshall Islands,23424932,Pacific/Majuro,0,Airports,BLANK,BLANK,4500.0,10.0,BLANK,1,1
309,BIK,-1.0,136.117,Frans Kaisiepo Airport,Biak,Irian Jaya,Indonesia,12513465,Asia/Jakarta,0,Airports,BLANK,BLANK,11715.0,46.0,BLANK,2,2
310,BIL,45.8034,-108.537,Logan International Airport,Billings,Montana,United States,12520688,America/Denver,0,Airports,BLANK,BLANK,10528.0,3649.0,KBIL,13,14
311,BIM,25.6994,-79.2636,South Bimini Airport,Bailey's Town,Bimini,Bahamas,12510880,America/Nassau,0,Other Airport,BLANK,BLANK,5000.0,10.0,MYBS,1,3
312,BIO,43.3025,-2.91112,Bilbao Airport,Loiu,Basque Country,Spain,12517541,Europe/Madrid,0,Airports,BLANK,BLANK,8530.0,136.0,LEBB,37,35
313,BIQ,43.472,-1.53137,Anglet Airport,Anglet,Aquitaine,France,12512842,Europe/Paris,+33 5 59 43 83 83,Airports,BLANK,http://www.biarritz.aeroport.fr/indexen.html,7382.0,243.0,LFBZ,14,8
314,BIR,26.4814,87.2647,Biratnagar Airport,Biratnagur,Central,Nepal,12515132,Asia/Katmandu,0,Airports,BLANK,BLANK,5000.0,235.0,BLANK,1,1
315,BIS,46.7745,-100.757,Bismarck Municipal Airport,Bismarck,North Dakota,United States,12518843,America/Chicago,0,Airports,BLANK,BLANK,8788.0,1677.0,KBIS,5,8
316,BJA,36.7133,5.0697,Soummam Airport,Bejaia,Bejaia,Algeria,12510347,Africa/Algiers,0,Airports,BLANK,BLANK,7874.0,20.0,BLANK,6,2
317,BJB,37.4933,57.3007,Bojnord,Bojnord,Khorasan,Iran,2220377,Asia/Tehran,0,Airports,BLANK,BLANK,,,BLANK,1,1
318,BJF,70.6031,29.6948,Batsfjord Airport,Baasfjord,Finnmark Fylke,Norway,12523932,Europe/Oslo,0,Airports,BLANK,BLANK,2493.0,133.0,ENBS,6,1
319,BJI,47.5065,-94.9338,Bemidji-Beltrami County Airport,Bemidji,Minnesota,United States,12518794,America/Chicago,0,Airports,BLANK,BLANK,5699.0,1390.0,KBJI,1,4
320,BJL,13.3372,-16.6544,Yundum International Airport,Yundum,Western,Gambia,12512990,Africa/Banjul,0,Airports,BLANK,BLANK,11810.0,95.0,GBYD,6,9
321,BJM,-3.3317,29.3208,Bujumbura Airport,Bujumbura,Bujumbura,Burundi,12511564,Africa/Bujumbura,0,Airports,BLANK,BLANK,11810.0,2566.0,HBBA,6,10
322,BJR,11.5564,37.3687,Ethiopia,Bahar Dar,Misrak Gojam,Ethiopia,23424808,Africa/Addis_Ababa,0,Airports,BLANK,BLANK,5217.0,6020.0,BLANK,3,1
323,BJV,37.0413,27.4362,Milas Airport,Bodrum,Muğla,Turkey,12523053,Europe/Istanbul,0,Airports,BLANK,BLANK,,,BLANK,9,7
324,BJW,-8.78333,120.983,Bajawa Airport,Ende,Nusa Tengarra Timur,Indonesia,12523075,Asia/Makassar,0,Airports,BLANK,BLANK,2920.0,4326.0,BLANK,1,1
325,BJX,20.9903,-101.478,Silao Airport,Silao,Guanajuato,Mexico,12514965,America/Mexico_City,0,Airports,BLANK,BLANK,,,MMLO,12,13
326,BJZ,38.8939,-6.81921,Talavera la Real Airport,Badajoz,Extremadura,Spain,12517575,Europe/Madrid,0,Airports,BLANK,BLANK,9350.0,607.0,LEBZ,4,2
327,BKA,55.5516,37.9763,Bykovo Airport,Lyubertsy,Moskovskaya Oblast,Russia,12515878,Europe/Moscow,0,Airports,BLANK,BLANK,,,BLANK,1,1
328,BKC,65.9833,-161.167,Buckland Airport,Buckland,Alaska,United States,12524578,America/Nome,0,Airports,BLANK,BLANK,1870.0,30.0,BLANK,2,3
329,BKI,5.9386,116.049,Kota Kinabalu Airport,Kota Kinabalu,Sabah,Malaysia,12514995,Asia/Kuala_Lumpur,0,Airports,BLANK,BLANK,9800.0,10.0,WBKK,27,16
330,BKK,13.9144,100.608,Bangkok International Airport,Lak Si,Bangkok,Thailand,12517747,Asia/Bangkok,0,Airports,BLANK,http://www.airportthai.co.th/airportnew/bia/html/,12139.0,12.0,VTBS,132,113
331,BKL,41.5115,-81.6869,Burke Lakefront Airport,Cleveland,Ohio,United States,12518976,America/New_York,0,Other Airport,BLANK,BLANK,6198.0,584.0,KBKL,1,1
332,BKM,3.94515,114.402,Malaysia,Bakalalan,,Malaysia,23424901,Asia/Kuala_Lumpur,0,Airports,BLANK,BLANK,1800.0,2900.0,BLANK,2,1
333,BKO,12.5361,-7.9486,Bamako Senou Airport,Kalaban,Bamako,Mali,12514773,Africa/Bamako,0,Airports,BLANK,BLANK,8858.0,1247.0,GABS,17,19
334,BKQ,-24.4292,145.429,Blackall Aerodrome,Mount Enniskillen,Queensland,Australia,12510609,Australia/Lindeman,0,Airports,BLANK,BLANK,5538.0,928.0,BLANK,2,1
335,BKS,-3.8633,102.339,Padangkemiling Airport,Bengkulu,Bengkulu,Indonesia,12513489,Asia/Jakarta,0,Airports,BLANK,BLANK,5905.0,50.0,KBKS,1,2
336,BKW,37.7849,-81.1174,Raleigh County Memorial Airport,Beaver,West Virginia,United States,12521519,America/New_York,0,Airports,BLANK,BLANK,6750.0,2504.0,KBKW,2,1
337,BKY,-2.3014,28.8139,Bukavu Kavumu Airport,Bukavu,Democratic Republic of,Congo,12511951,Africa/Brazzaville,0,Airports,BLANK,BLANK,5249.0,5633.0,BLANK,1,1
338,BLA,10.1103,-64.6872,Jose Antonio Anzoategui Airport,Pariaguán,Anzoategui,Venezuela,12522795,America/Caracas,0,Airports,BLANK,BLANK,8202.0,26.0,SVBC,6,4
339,BLE,60.4297,15.5081,Dala Airport,Borlange,Dalarna,Sweden,12517614,Europe/Stockholm,0,Airports,BLANK,http://www.dalaflyget.se/,7585.0,503.0,BLANK,4,3
340,BLI,48.7955,-122.532,Bellingham International Airport,Bellingham,Washington,United States,12518790,America/Los_Angeles,0,Airports,BLANK,BLANK,5000.0,158.0,KBLI,8,8
341,BLJ,35.5572,6.17229,Algeria,Batna,Batna,Algeria,23424740,Africa/Algiers,0,Airports,BLANK,BLANK,4921.0,3445.0,BLANK,4,2
342,BLK,53.7756,-3.04118,Blackpool Airport,Blackpool,England,United Kingdom,22454971,Europe/London,08700 273 777,Airports,BLANK,http://www.blackpoolinternational.com,6001.0,34.0,EGNH,13,4
343,BLL,55.742,9.15354,Billund Airport,Billund,Syddanmark,Denmark,12512589,Europe/Copenhagen,0,Airports,BLANK,http://www.billund-airport.com/,10171.0,247.0,EKBI,38,23
344,BLQ,44.5345,11.2903,Bologna Airport,Bologna,Emilia Romagna,Italy,12513806,Europe/Rome,0,Airports,BLANK,BLANK,8435.0,125.0,LIPE,52,39
345,BLR,12.9526,77.6656,HAL Bangalore International Airport,Bangalore,Karnataka,India,12513543,Asia/Kolkata,+91 (0)80 25228460,Airports,BLANK,BLANK,10850.0,2910.0,VOBG,37,33
346,BLT,-23.6012,148.805,Blackwater Aerodrome,Baralaba,Queensland,Australia,12510610,Australia/Lindeman,0,Airports,BLANK,BLANK,5000.0,660.0,BLANK,2,1
347,BLV,38.5412,-89.8499,Belleville,Belleville,Illinois,United States,12521774,America/Chicago,0,Other Airport,BLANK,BLANK,,,KBLV,1,1
348,BLZ,-15.6764,34.9714,Chileka International Airport,Lunzu,Blantyre,Malawi,12514765,Africa/Blantyre,0,Airports,BLANK,BLANK,7710.0,2555.0,FWCL,6,3
349,BMA,59.3562,17.9378,Bromma Airport,Bromma,Stockholm,Sweden,12517616,Europe/Stockholm,0,Airports,BLANK,http://www.bromma.lfv.se/,5863.0,46.0,ESSB,11,8
350,BME,-17.9464,122.233,Broome International Airport,Broome,Western Australia,Australia,12510620,Australia/Perth,0,Airports,BLANK,BLANK,5010.0,56.0,BLANK,8,4
351,BMI,40.4841,-88.9134,Bloomington Normal Airport,Bloomington,Illinois,United States,12518861,America/Chicago,0,Airports,BLANK,BLANK,6500.0,875.0,KBMI,7,12
352,BMK,53.5797,6.71294,Borkum Airport,Borkum,Lower Saxony,Germany,22176048,Europe/Berlin,0,Airports,BLANK,BLANK,3281.0,3.0,BLANK,1,1
353,BMO,24.2739,97.2517,Bhamo Airport,Bhamo,Kachin State,Myanmar,12510912,Asia/Rangoon,0,Airports,BLANK,BLANK,5501.0,360.0,BLANK,1,1
354,BMU,-8.5444,118.682,Mohammad Salahuddin Airport,Raba,Nusa Tenggara Barat,Indonesia,12513483,Asia/Jakarta,0,Airports,BLANK,BLANK,4265.0,39.0,BLANK,2,2
355,BMV,12.6667,108.05,Ban Me Thaut,Banmethuot,Dak Lak,Vietnam,1233132,Asia/Ho_Chi_Minh,0,Airports,BLANK,BLANK,5905.0,1758.0,BLANK,3,1
356,BMW,28.0269,1.65284,Algeria,Bordj Badji Mokhtar,,Algeria,23424740,Africa/Algiers,0,Airports,BLANK,BLANK,7372.0,1303.0,BLANK,1,1
357,BMY,-19.75,163.667,Belep Island,Belep Island,Nord,New Caledonia,1049677,Pacific/Noumea,0,Airports,BLANK,BLANK,1640.0,338.0,BLANK,1,1
358,BNA,36.1342,-86.6682,Nashville International Airport,Nashville,Tennessee,United States,12521083,America/Chicago,0,Airports,BLANK,BLANK,8500.0,599.0,KBNA,53,38
359,BND,27.225,56.3783,Bandar Abbass International Airport,Bandar Abbas,Hormozgan,Iran,12513703,Asia/Tehran,0,Airports,BLANK,BLANK,12020.0,23.0,BLANK,10,6
360,BNE,-27.3589,153.122,Brisbane International Airport,Brisbane,Queensland,Australia,23388207,Australia/Brisbane,+61 7 3406 3000,Airports,BLANK,http://www.bne.com.au/,11483.0,13.0,YBBN,62,43
361,BNI,6.3161,5.6,Benin Airport,Benin City,Edo,Nigeria,12515060,Africa/Lagos,0,Airports,BLANK,BLANK,7874.0,258.0,BLANK,1,2
362,BNJ,50.7667,7.16449,Hangelar,Bonn,North-Rhine-Westphalia,Germany,695997,Europe/Berlin,0,Airports,BLANK,BLANK,,,BLANK,3,2
363,BNK,-28.8342,153.555,Ballina Airport,Ballina,New South Wales,Australia,12510596,Australia/Brisbane,0,Airports,BLANK,BLANK,,,YBNA,3,5
364,BNN,65.462,12.2161,Bronnoy Airport,Bronnoysund,Nordland Fylke,Norway,12523928,Europe/Oslo,0,Airports,BLANK,BLANK,2624.0,28.0,ENBN,7,1
365,BNS,8.6211,-70.2181,Barinas Airport,Barinas,Barinas,Venezuela,12522757,America/Caracas,0,Airports,BLANK,BLANK,6562.0,666.0,SVBI,3,2
366,BNX,44.9403,17.2992,Banja Luka Airport,Banja Luka,Republika Srpska,Bosnia and Herzegovina,12510897,Europe/Sarajevo,0,Airports,BLANK,http://www.banjaluka-airport.com/,8215.0,390.0,LQBK,3,2
367,BNY,-11.2961,159.801,Bellona Airport,Bellona,Central,Solomon Islands,12511005,Pacific/Noumea,0,Airports,BLANK,BLANK,2181.0,56.0,BLANK,2,1
368,BOB,-16.45,-151.767,Motu-Mute Airport,Papeete,Leeward Islands,French Polynesia,12523077,Pacific/Tahiti,0,Airports,BLANK,BLANK,4921.0,10.0,NTTB,7,1
369,BOC,9.34,-82.2514,Bocas del Toro Airport,Bocas del Toro,Bocas del Toro,Panama,12515413,America/Panama,0,Airports,BLANK,BLANK,4932.0,10.0,BLANK,1,1
370,BOD,44.8291,-0.70278,Bordeaux Airport,Merignac,Aquitaine,France,12512934,Europe/Paris,0,Airports,BLANK,BLANK,10170.0,161.0,LFBD,44,33
371,BOG,4.69895,-74.1435,Eldorado International Airport,Fontibón,Distrito Especial,Colombia,12512375,America/Bogota,0,Airports,BLANK,http://www.aerocivil.gov.co/plan%20maestro/index.htm,12467.0,8356.0,SKBO,64,30
372,BOH,50.7797,-1.83424,Bournemouth International Airport,Christchurch,England,United Kingdom,22460043,Europe/London,+44 1202 364 000,Airports,BLANK,http://www.flybournemouth.com,7450.0,36.0,EGHH,15,5
373,BOI,43.5709,-116.222,Boise Air Terminal,Boise,Idaho,United States,12518880,America/Boise,0,Airports,BLANK,BLANK,9763.0,2858.0,KBOI,22,21
374,BOJ,42.5667,27.5,Bourgas Airport,Burgas,Burgas,Bulgaria,12523782,Europe/Sofia,+359 56 870248,Airports,BLANK,http://www.bourgas-airport.com/,8530.0,121.0,LBBG,22,14
375,BOM,19.0932,72.8654,Chhatrapati Shivaji International Airport,Mumbai,Maharashtra,India,12513559,Asia/Kolkata,0,Airports,BLANK,http://www.airportsindia.org.in/aai/mumbai/index.htm,11446.0,36.0,VABB,86,60
376,BON,12.1392,-68.2697,Flamingo Airport,Kralendijk,Bonaire,Netherlands Antilles,12515137,America/Curacao,0,Airports,BLANK,BLANK,9449.0,20.0,TNCB,9,11
377,BOO,67.2709,14.3653,Bodo Airport,Bodo,Nordland Fylke,Norway,12515105,Europe/Oslo,0,Airports,BLANK,BLANK,9163.0,42.0,ENBO,14,4
378,BOS,42.3717,-71.0281,Gen E L Logan International Airport,Boston,Massachusetts,United States,12519874,America/New_York,0,Airports,BLANK,BLANK,10081.0,20.0,KBOS,113,68
379,BOW,27.9493,-81.7818,Bartow Municipal Airport,Bartow,Florida,United States,12518749,America/New_York,0,Airports,BLANK,BLANK,5000.0,128.0,KBOW,0,0
380,BOY,11.1636,-4.3264,Bobo Dioulasso Airport,Bobo-Dioulasso,Houet,Burkina Faso,12522554,Africa/Ouagadougou,0,Airports,BLANK,BLANK,10826.0,1509.0,DFOO,2,1
381,BPN,-1.2681,116.897,Sepinggan Airport,Balikpapan,Kalimantan Timur,Indonesia,12513506,Asia/Jakarta,0,Airports,BLANK,BLANK,5905.0,10.0,WALL,8,11
382,BPS,-16.4406,-39.0833,Porto Seguro Airport,Porto Seguro,Bahia,Brazil,12511284,America/Bahia,0,Airports,BLANK,BLANK,5351.0,161.0,SBPS,3,6
383,BPT,29.9551,-94.0185,Jefferson County Airport,Beaumont,Texas,United States,12520357,America/Chicago,0,Airports,BLANK,BLANK,6751.0,16.0,KBPT,1,4
384,BPX,31.1442,97.174,Bangda Airport,Qamdo,Tibet,China,23424781,Asia/Chongqing,0,Airports,BLANK,BLANK,18045.0,14219.0,BLANK,2,1
385,BPY,-16.7431,44.4803,Besalampy Airport,Besalampy,Mahajanga,Madagascar,12514696,Indian/Antananarivo,0,Airports,BLANK,BLANK,4921.0,125.0,BLANK,2,1
386,BQK,31.2525,-81.4703,Glynco Jetport Airport,Brunswick,Georgia,United States,12519920,America/New_York,0,Airports,BLANK,BLANK,8001.0,26.0,KBQK,1,2
387,BQL,-22.9122,139.897,Boulia Aerodrome,Boulia,Queensland,Australia,12510613,Australia/Brisbane,0,Airports,BLANK,BLANK,4180.0,540.0,BLANK,2,1
388,BQN,18.496,-67.1357,Rafael Hernandez Airport,Aguadilla,Puerto Rico,United States,12515664,America/Puerto_Rico,0,Airports,BLANK,BLANK,11700.0,237.0,TJBQ,4,5
389,BQS,50.4243,127.409,Blagoveshchensk Northwest Airport,Blagoveshchensk,Amurskaya Oblast,Russia,12515824,Asia/Yakutsk,0,Airports,BLANK,BLANK,,,BLANK,8,7
390,BRA,-12.0792,-45.01,Barreiras Airport,Barreiras,Bahia,Brazil,12511045,America/Belem,0,Airports,BLANK,BLANK,5905.0,2444.0,BLANK,2,1
391,BRC,-41.1511,-71.1581,San Carlos de Bariloche Airport,San Carlos DeBariloche,Santa Fe,Argentina,12510550,America/Argentina/Cordoba,0,Airports,BLANK,BLANK,7900.0,2772.0,SAZS,4,3
392,BRD,46.3909,-94.1413,Brainerd-Crow Wing County Regional Airport,Brainerd,Minnesota,United States,12518917,America/Chicago,0,Airports,BLANK,BLANK,6500.0,1226.0,KBRD,2,3
393,BRE,53.0523,8.78533,Bremen Airport,Bremen,Bremen,Germany,22177393,Europe/Berlin,+49 421 5595-0,Airports,BLANK,http://www.airport-bremen.de,6673.0,13.0,EDDW,38,27
394,BRF,54.3139,-2.23218,United Kingdom,Bradford,,United Kingdom,23424975,Europe/London,0,Railway Stations,BLANK,BLANK,,,BLANK,1,1
395,BRI,41.1376,16.7674,Palese Macchie Airport,Bari,Puglia,Italy,12513843,Europe/Rome,0,Airports,BLANK,http://www.seap-puglia.it/,7283.0,167.0,LIBD,31,28
396,BRK,-30.0403,145.953,Bourke Airport,Bourke,New South Wales,Australia,12510614,Australia/Sydney,0,Airports,BLANK,BLANK,6000.0,351.0,BLANK,1,1
397,BRL,40.7816,-91.1197,Burlington Municipal Airport,Burlington,Iowa,United States,12518980,America/Chicago,0,Airports,BLANK,BLANK,6702.0,698.0,KBRL,2,2
398,BRM,10.0453,-69.3561,Barquisimeto Airport,Barquisimeto,Lara,Venezuela,12522758,America/Caracas,0,Airports,BLANK,BLANK,7808.0,2042.0,SVBM,2,4
399,BRN,46.9124,7.49929,Bern Belp Airport,Belp,Canton of Berne,Switzerland,23332448,Europe/Zurich,0,Airports,BLANK,BLANK,4298.0,1673.0,LSZB,7,6
400,BRO,25.9064,-97.4321,Brownsville-South Padre Island International Air,Brownsville,Texas,United States,12518951,America/Chicago,0,Airports,BLANK,BLANK,7400.0,22.0,KBRO,5,9
401,BRQ,49.1535,16.6908,Turany Airport,Brno,Jihomoravský,Czech Republic,12512574,Europe/Prague,0,Airports,BLANK,http://www.airport-brno.cz,8694.0,778.0,LKTB,7,8
402,BRR,57.0251,-7.44967,North Bay Airport,Barra,England,United Kingdom,12523078,Europe/London,0,Airports,BLANK,BLANK,2982.0,,EGPR,2,2
403,BRS,51.3848,-2.70526,Bristol International Airport,Bristol,England,United Kingdom,22456683,Europe/London,0,Airports,BLANK,http://www.bristolairport.co.uk,6598.0,620.0,EGGD,73,22
404,BRU,50.899,4.4859,Brussels Airport,Bruxelles,Vlaams Brabant,Belgium,22103751,Europe/Brussels,+32 (0) 900 7 0000,Airports,BLANK,http://www.brusselsairport.be,9790.0,184.0,EBBR,186,97
405,BRV,53.5537,8.78359,Bremerhaven Airport,Bad Bederkesa,Lower Saxony,Germany,12523855,Europe/Berlin,0,Airports,BLANK,BLANK,2259.0,10.0,BLANK,1,1
406,BRW,71.2892,-156.772,Wiley Post Will Rogers Memorial Airport,Barrow,Alaska,United States,12522440,America/Nome,0,Airports,BLANK,BLANK,6500.0,44.0,PABR,7,5
407,BSA,11.2775,49.1814,Somalia,Bossaso,Bari,Somalia,23424949,Africa/Mogadishu,0,Airports,BLANK,BLANK,3477.0,6.0,HCMF,3,2
408,BSB,-15.8622,-47.9122,Juscelino Kubitschek International Airport,Lago Sul,Distrito Federal,Brazil,12511058,America/Sao_Paulo,0,Airports,BLANK,http://www.infraero.gov.br/,10499.0,3473.0,SBBR,32,10
409,BSC,6.1786,-77.3956,Jose Celestino Mutis Airport,Bahía Solano,Choco,Colombia,12512385,America/Bogota,0,Airports,BLANK,BLANK,3936.0,80.0,BLANK,2,1
410,BSD,25.0604,99.1639,Baoshan Airport,Baoshan,Yunnan,China,12511986,Asia/Chongqing,0,Airports,BLANK,BLANK,,,BLANK,1,2
411,BSG,1.9046,9.8032,Bata Airport,Bata,Litoral,Equatorial Guinea,12512729,Africa/Malabo,0,Airports,BLANK,BLANK,6562.0,7.0,BLANK,3,1
412,BSH,50.8333,-0.13333,Brighton Airport,Brighton,England,United Kingdom,12523976,Europe/London,0,Railway Stations,BLANK,BLANK,,,BLANK,2,1
413,BSK,34.7933,5.74,Biskra Airport,Biskra,Biskra,Algeria,12510315,Africa/Algiers,0,Airports,BLANK,BLANK,9514.0,285.0,DAUB,3,2
414,BSL,47.5998,7.532,Euroairport Basel-Mulhouse-Freiburg,St-Ludwig,Alsace,France,12523049,Europe/Zurich,0,Airports,BLANK,BLANK,12795.0,883.0,LFSB,67,32
415,BSO,20.4531,121.978,Basco Airport,Basco,Cagayan Valley,Philippines,12515599,Asia/Manila,0,Airports,BLANK,BLANK,4101.0,184.0,BLANK,1,1
416,BSR,30.5481,47.6658,Basrah International Airport,Gawad,Al Basrah,Iraq,12513895,Asia/Baghdad,0,Other Airport,BLANK,BLANK,5971.0,9.0,BLANK,0,0
417,BSX,45.4264,5.14384,Bassein,Bassein,Ayeyarwady,Myanmar,1017357,Asia/Rangoon,0,Airports,BLANK,BLANK,4750.0,20.0,BLANK,2,1
418,BTH,1.1306,104.134,Hang Nadim Airport,Batam,Riau,Indonesia,12513469,Asia/Jakarta,0,Airports,BLANK,BLANK,8202.0,68.0,BLANK,8,7
419,BTI,70.1478,-143.579,Barter Island Airport,Kaktovik,Alaska,United States,12524590,America/Anchorage,0,Airports,BLANK,BLANK,4800.0,5.0,PABA,2,1
420,BTJ,5.5197,95.4181,Blangbintang Airport,Banda Aceh,Aceh,Indonesia,12513456,Asia/Jakarta,0,Airports,BLANK,BLANK,6070.0,62.0,BLANK,4,6
421,BTK,56.1667,102.067,Bratsk,Bratsk,Irkutskaya Oblast,Russia,2120401,Asia/Irkutsk,0,Airports,BLANK,BLANK,,,BLANK,4,4
422,BTL,42.3046,-85.2448,W K Kellogg Airport,Battle Creek,Michigan,United States,12522297,America/Detroit,0,Airports,BLANK,BLANK,7011.0,941.0,KBTL,2,2
423,BTM,45.9544,-112.503,Bert Mooney Airport,Butte,Montana,United States,12518811,America/Denver,0,Airports,BLANK,BLANK,9000.0,5553.0,KBTM,3,3
424,BTR,30.533,-91.1567,Baton Rouge Metropolitan Airport,Baton Rouge,Louisiana,United States,12518754,America/Chicago,0,Airports,BLANK,BLANK,6900.0,70.0,KBTR,6,11
425,BTS,48.2063,17.2055,Bratislava Airport,Bratislava,Bratislavsky,Slovakia,12514608,Europe/Bratislava,+42148571111,Airports,information@airportbratislava.sk,http://www.airportbratislava.sk,9514.0,433.0,LZIB,35,16
426,BTT,66.9134,-151.551,Bettles Airport,Bettles,Alaska,United States,12524591,America/Anchorage,0,Airports,BLANK,BLANK,5199.0,643.0,PABT,3,4
427,BTU,3.1728,113.043,Bintulu Airport,Bintulu,Sarawak,Malaysia,12514990,Asia/Kuala_Lumpur,0,Airports,BLANK,BLANK,4500.0,6.0,WBGB,5,2
428,BTV,44.4688,-73.1552,Burlington International Airport,South Burlington,Vermont,United States,12518979,America/New_York,0,Airports,BLANK,BLANK,7807.0,334.0,KBTV,15,16
429,BTZ,40.2344,29.0053,Bursa Airport,Bursa,Bursa,Turkey,12517876,Europe/Istanbul,0,Other Airport,BLANK,BLANK,4593.0,332.0,BLANK,1,1
430,BUA,-5.42232,154.673,Buka,Buka,Buka Island,Papua New Guinea,12498830,Pacific/Port_Moresby,0,Airports,BLANK,BLANK,5100.0,11.0,AYBK,2,1
431,BUC,-17.7484,139.532,Burketown Aerodrome,Burketown,Queensland,Australia,12510622,Australia/Lindeman,0,Airports,BLANK,BLANK,3500.0,50.0,YBKT,2,1
432,BUD,47.4453,19.2195,Ferihegy Airport,Budapest,Budapest,Hungary,12513389,Europe/Budapest,(36) 1 2969696,Airports,BLANK,http://www.bud.hu,9875.0,440.0,LHBP,102,64
433,BUF,42.9309,-78.738,Greater Buffalo International Airport,Buffalo,New York,United States,12519977,America/New_York,0,Airports,BLANK,http://www.nfta.com/airport/,15.0,724.0,KBUF,29,30
434,BUL,33.9116,-102.638,Bulolo,Bulolo,Manus,Papua New Guinea,12498381,Pacific/Port_Moresby,0,Airports,BLANK,BLANK,4375.0,2240.0,BLANK,1,1
435,BUN,3.8183,-76.9931,Buenaventura Airport,Buenaventura,Valle del Cauca,Colombia,12512367,America/Bogota,0,Airports,BLANK,BLANK,3510.0,50.0,SKBU,1,2
436,BUO,65.8514,12.344,Burao,Burao,Togdheer,Somalia,1425676,Africa/Mogadishu,0,Airports,BLANK,BLANK,7875.0,3400.0,HCMV,3,1
437,BUQ,-20.0169,28.6181,Bulawayo Airport,Bulawayo,Matabeleland North,Zimbabwe,12523021,Africa/Harare,0,Airports,BLANK,BLANK,8471.0,4366.0,FVBU,3,2
438,BUR,34.1963,-118.352,Burbank Glendale Pasadena Airport,Burbank,California,United States,12518974,America/Los_Angeles,0,Airports,BLANK,http://www.bobhopeairport.com,6902.0,775.0,KBUR,14,12
439,BUS,50.0662,2.96519,Batumi,Batumi,Ajaria,Georgia,1962543,Asia/Tbilisi,0,Airports,BLANK,BLANK,,,UGSB,10,6
440,BUX,1.5717,30.2128,Bunia Airport,Bunia,Democratic Republic of,Congo,12511952,Africa/Brazzaville,0,Airports,BLANK,BLANK,6070.0,4045.0,FZKA,1,1
441,BUZ,28.9494,50.8311,Bushehr Airport,Bandar-e Bushehr,Bushehr,Iran,12513710,Asia/Tehran,0,Airports,BLANK,BLANK,10860.0,57.0,OIBB,4,2
442,BVA,49.4565,2.11552,Beauvais-Tille Airport,Beauvais,Picardie,France,22904235,Europe/Paris,0,Other Airport,BLANK,http://www.aeroportbeauvais.com/,7972.0,358.0,LFOB,19,3
443,BVB,2.8417,-60.6917,Boa Vista International Airport,Boa Vista,Nordeste,Brazil,12511054,America/Recife,0,Airports,BLANK,BLANK,8071.0,276.0,SBBV,1,3
444,BVC,16.0961,-22.8172,Boa Vista Airport,Boa Vista,Boa Vista,Cape Verde,12512494,Atlantic/Cape_Verde,0,Airports,BLANK,BLANK,4593.0,69.0,BLANK,1,1
445,BVE,45.1487,1.47441,La Roche Airport,Brive-la-Gaillarde,Limousin,France,12512905,Europe/Paris,0,Other Airport,BLANK,BLANK,3609.0,374.0,BLANK,1,1
446,BVG,70.8702,29.0294,Berlevag Airport,Berlevaag,Finnmark Fylke,Norway,12523927,Europe/Oslo,0,Airports,BLANK,BLANK,2625.0,43.0,BLANK,5,1
447,BVH,-12.7014,-60.0931,Brigadeiro Camarao Airport,Vilhena,Rondonia,Brazil,12511373,America/Cuiaba,0,Other Airport,BLANK,BLANK,8524.0,2008.0,BLANK,2,1
448,BVI,-25.8971,139.349,Birdsville Airport,Birdsville,Queensland,Australia,12510608,Australia/Lindeman,0,Airports,BLANK,BLANK,4700.0,157.0,YBDV,2,1
449,BWA,27.5042,83.42,Bhairawa Airport,Bhairawa,West,Nepal,12515131,Asia/Katmandu,0,Airports,BLANK,BLANK,4970.0,358.0,VNBW,1,1
450,BWE,52.3165,10.5595,Braunschweig Airport,Braunschweig,Lower Saxony,Germany,22176819,Europe/Berlin,0,Other Airport,BLANK,BLANK,5315.0,291.0,EDVE,3,2
451,BWF,54.1284,-3.26249,Walney Island Airport,Barrow in Furness,England,United Kingdom,12518033,Europe/London,0,Airports,BLANK,BLANK,3953.0,47.0,EGNL,1,1
452,BWI,39.1841,-76.6745,Baltimore-Washington International Thurgood Mars,Baltimore,Maryland,United States,12522341,America/New_York,410-859-7111,Airports,BLANK,http://www.bwiairport.com,9519.0,146.0,KBWI,79,39
453,BWK,43.2619,16.655,Bol,Bol,Splitsko-Dalmatinska,Croatia,15022368,Europe/Belgrade,+385/21/559711,Airports,BLANK,BLANK,,,BLANK,1,1
454,BWN,4.9458,114.924,Brunei International Airport,Bandar Seri Begawan,Brunei and Muara,Brunei,12511563,Asia/Brunei,0,Airports,BLANK,BLANK,12000.0,73.0,WBSB,16,8
455,BWT,-40.9935,145.725,Burnie Wynyard Airport,Doctors Rocks,Tasmania,Australia,12510819,Australia/Hobart,0,Airports,BLANK,BLANK,4965.0,61.0,BLANK,1,1
456,BWW,22.4922,-79.9408,Santa Clara Airport,Santa Clara,BLANK,Cuba,12512488,America/Havana,0,Airports,BLANK,BLANK,,,BLANK,1,1
457,BXR,29.4375,-98.4618,BLANK,Bam,Kerman,Iran,2254392,Asia/Tehran,0,Airports,BLANK,BLANK,,,BLANK,1,1
458,BXU,8.9528,125.476,Butuan Airport,Buenavista,Caraga,Philippines,12515601,Asia/Manila,0,Airports,BLANK,BLANK,5249.0,141.0,RPME,2,3
459,BYM,20.3972,-76.6192,Bayamo Airport,Bayamo,Granma,Cuba,12512453,America/Havana,0,Airports,BLANK,BLANK,6625.0,210.0,BLANK,1,1
460,BYN,62.0526,17.1936,BLANK,Bayankhongor,Bayanhongor,Mongolia,2265314,Asia/Ulaanbaatar,0,Airports,BLANK,BLANK,,,BLANK,2,1
461,BZE,17.5386,-88.3042,Philip S W Goldson International Airport,Hattieville,Belize,Belize,12510896,America/Belize,0,Airports,BLANK,BLANK,6300.0,15.0,MZBZ,15,10
462,BZG,53.0918,17.9821,Szwederowo Airport,Białe Błota,Kujawsko-Pomorskie,Poland,12523956,Europe/Warsaw,0,Airports,BLANK,http://www.plb.pl,,,EPBD,9,2
463,BZK,53.2667,34.3333,Briansk,Briansk,Tsentral'Niy,Russian Federation,2346892,Europe/Moscow,0,Airports,BLANK,BLANK,,,BLANK,0,0
464,BZL,22.6667,90.3417,BLANK,Barisal,Barisal,Bangladesh,1914997,Asia/Dhaka,0,Airports,BLANK,BLANK,1810.0,20.0,VGBR,1,2
465,BZN,45.7722,-111.157,Gallatin Field Airport,Bozeman,Montana,United States,12519854,America/Denver,0,Airports,BLANK,BLANK,9002.0,4458.0,KBZN,10,8
466,BZO,46.4621,11.3282,Bolzano Airport,Botzen,Trentino-Alto Adige,Italy,12513807,Europe/Rome,+39-0471-255 255,Airports,BLANK,http://www.abd-airport.it,3450.0,790.0,LIPB,2,2
467,BZR,43.3229,3.35466,Vias Airport,Villeneuve,Languedoc-Roussillon,France,12512985,Europe/Paris,0,Airports,BLANK,BLANK,5971.0,56.0,LFMU,3,2
468,BZV,-4.2558,15.2497,Brazzaville Maya Maya Airport,Brazzaville,Brazzaville,Congo,12511945,Africa/Brazzaville,0,Airports,BLANK,BLANK,10826.0,1047.0,FCBB,12,20
469,BZZ,51.7614,-1.57482,Brize Norton Airport,Carterton,England,United Kingdom,12518048,Europe/London,00 44 1993 842551,Military Airport,BLANK,BLANK,10006.0,287.0,EGVN,1,1
470,CAB,-5.59,12.1886,Cabinda Airport,Cabinda,Cabinda,Angola,12510430,Africa/Luanda,0,Airports,BLANK,BLANK,8202.0,66.0,BLANK,2,1
471,CAC,-25.0017,-53.5014,Cascavel Airport,Cascavel,Nordeste,Brazil,12511085,America/Fortaleza,0,Airports,BLANK,BLANK,4633.0,2473.0,BLANK,2,1
472,CAE,33.9468,-81.1241,Columbia Metropolitan Airport,West Columbia,South Carolina,United States,12519284,America/New_York,0,Airports,BLANK,BLANK,8602.0,236.0,KCAE,20,26
473,CAG,39.2527,9.05813,Elmas Airport,Sardara,Sardinia,Italy,12513818,Europe/Rome,0,Airports,BLANK,BLANK,9186.0,13.0,KCAG,30,23
474,CAH,9.17667,105.151,Camo,Ca Mau,Ca Mau,Vietnam,1252573,Asia/Ho_Chi_Minh,0,Airports,BLANK,BLANK,1804.0,10.0,BLANK,1,2
475,CAI,30.1206,31.4078,Cairo International Airport,Cairo,Al Qahirah,Egypt,12512678,Africa/Cairo,0,Airports,BLANK,http://www.cairo-airport.com/,13123.0,381.0,HECA,92,52
476,CAK,40.9149,-81.4309,Akron Canton Regional Airport,Canton,Ohio,United States,12518548,America/New_York,0,Airports,BLANK,BLANK,6397.0,1228.0,KCAK,13,13
477,CAL,55.4388,-5.69997,Campbeltown Airport,Campbeltown,Scotland,United Kingdom,22458271,Europe/London,0,Airports,BLANK,BLANK,10003.0,44.0,BLANK,1,2
478,CAN,23.3925,113.299,Baiyun Airport,Guangzhou,Guangdong,China,12511984,Asia/Chongqing,0086-020-86120000,Airports,BLANK,BLANK,11000.0,45.0,ZGGG,111,49
479,CAP,19.7328,-72.195,Cap Haitien Airport,Cap-Haïtien,Nord,Haiti,12513352,America/Port-au-Prince,0115092628539,Airports,BLANK,BLANK,1.0,15.0,BLANK,2,3
480,CAX,54.9375,-2.8106,Carlisle Airport,Carlisle,England,United Kingdom,12518055,Europe/London,+44 (0)1228 573641,Airports,BLANK,http://www.carlisleairport.co.uk,6026.0,190.0,BLANK,6,1
481,CAY,4.93333,-52.3333,Rochambeau,Cayenne,Cayenne,French Guiana,379817,America/Cayenne,0,Airports,BLANK,BLANK,10499.0,26.0,SOCA,4,3
482,CAZ,-31.5334,145.797,Cobar Airport,Canbelego,New South Wales,Australia,12510635,Australia/Sydney,0,Airports,BLANK,BLANK,5000.0,722.0,BLANK,3,1
483,CBB,-17.4161,-66.1744,Jorge Wilsterman Airport,Cochabamba,Cochabamba,Bolivia,12510908,America/La_Paz,0,Airports,BLANK,BLANK,8649.0,8360.0,SLCB,6,3
484,CBG,52.2069,0.17355,Cambridge Airport,Cambridge,England,United Kingdom,22458071,Europe/London,0,Airports,BLANK,BLANK,6446.0,50.0,EGSC,5,1
485,CBH,31.6583,-2.2614,Bechar Airport,Bechar,Bechar,Algeria,12510314,Africa/Algiers,0,Airports,BLANK,BLANK,10064.0,2661.0,BLANK,4,1
486,CBO,7.165,124.208,Cotabato Airport,Sultan Kudarat,Autonomous Region in Muslim Mind,Philippines,12515608,Asia/Manila,0,Airports,BLANK,BLANK,6233.0,187.0,BLANK,3,3
487,CBQ,4.9756,8.3481,Calabar Airport,Duke Town,Cross River,Nigeria,12515061,Africa/Lagos,0,Airports,BLANK,BLANK,8038.0,210.0,BLANK,2,3
488,CBR,-35.3069,149.195,Canberra International Airport,Canberra,Australian Capital Territory,Australia,12510625,Australia/Sydney,+61 2 6275 2222,Airports,BLANK,http://www.canberraairport.com.au,8800.0,1888.0,YSCB,8,9
489,CBT,-12.4827,13.4904,Angola,Catumbela,,Angola,23424745,Africa/Luanda,0,Airports,BLANK,BLANK,12135.0,,BLANK,4,1
490,CCC,22.4817,-78.4813,Cuba,Cayo Coco,Ciego de Avila,Cuba,23424793,America/Havana,0049 172 6221025,Airports,BLANK,BLANK,,,BLANK,4,2
491,CCF,43.2153,2.30989,Salvaza Airport,Carcassonne,Languedoc-Roussillon,France,12512962,Europe/Paris,0,Other Airport,BLANK,BLANK,6397.0,433.0,LFMK,7,1
492,CCJ,11.1329,75.9536,Kozhikode Airport,Pallikkal,Kerala,India,12513562,Asia/Kolkata,0,Airports,BLANK,http://www.calicutairport.com,9383.0,328.0,VOCL,18,13
493,CCK,-12.1778,96.839,Cocos Airport,West Island,BLANK,Cocos (Keeling) Islands,12523082,Indian/Cocos,0,Airports,BLANK,BLANK,8000.0,7.0,BLANK,2,1
494,CCM,-28.7239,-49.4208,Criciuma Airport,Forquilhinha,Santa Catarina,Brazil,12511104,America/Sao_Paulo,0,Airports,BLANK,BLANK,4892.0,93.0,BLANK,2,1
495,CCP,-36.7736,-73.06,Carriel Sur International Airport,Hualpencillo,Bio-Bio,Chile,12512311,America/Santiago,0,Airports,BLANK,http://www.aeropuertocarrielsur.co.cl,7546.0,41.0,SCIE,4,6
496,CCS,10.6053,-66.9881,Simon Bolivar International Airport,Catia la Mar,Vargas,Venezuela,12522849,America/Caracas,0,Airports,BLANK,BLANK,11483.0,235.0,SVMI,59,35
497,CCU,22.6572,88.4506,Netaji Subhash Chandra Bose International Airpor,Kolkata,West Bengal,India,12513561,Asia/Kolkata,0,Airports,BLANK,BLANK,11900.0,19.0,VECC,42,24
498,CCV,-16.6619,168.38,Vanuatu,Craig Cove,BLANK,Vanuatu,23424907,Pacific/Efate,0,Airports,BLANK,BLANK,2952.0,69.0,BLANK,4,1
499,CCZ,25.4098,-77.8843,Chub Cay Airport,Chub Cay,Berry Islands,Bahamas,12510861,America/Nassau,0,Airports,BLANK,BLANK,5000.0,5.0,BLANK,2,2
500,CDB,55.2005,-162.705,Cold Bay Airport,Cold Bay,Alaska,United States,12519269,America/Anchorage,0,Airports,BLANK,BLANK,10415.0,98.0,PACD,7,3
501,CDC,37.6992,-113.092,Cedar City Municipal Airport,Cedar City,Utah,United States,12519109,America/Denver,0,Airports,BLANK,BLANK,7802.0,5622.0,KCDC,1,1
502,CDG,49.0175,2.5564,Charles de Gaulle International Airport,Le Mesnil-Amelot,Ile-de-France,France,22140453,Europe/Paris,0,Airports,BLANK,BLANK,11811.0,387.0,LFPG,310,131
503,CDR,42.8284,-103.094,Chadron Municipal Airport,Chadron,Nebraska,United States,12519125,America/Denver,0,Airports,BLANK,BLANK,6002.0,3296.0,KCDR,3,3
504,CDV,60.4924,-145.475,Merle K Mudhole Smith Airport,Cordova,Alaska,United States,12520907,America/Anchorage,0,Airports,BLANK,BLANK,7499.0,42.0,PACV,3,5
505,CDW,40.8759,-74.2775,Essex County Airport,Fairfield,New Jersey,United States,12519660,America/New_York,0,Other Airport,BLANK,BLANK,4553.0,173.0,KCDW,4,3
506,CEB,10.3596,123.837,Lahug Airport,Cebu,Central Visayas,Philippines,12515625,Asia/Manila,0,Airports,BLANK,BLANK,8500.0,36.0,RPVM,27,13
507,CEC,41.7765,-124.237,Jack Mcnamara Field Airport,Crescent City,California,United States,12520324,America/Los_Angeles,0,Airports,BLANK,BLANK,5002.0,57.0,KCEC,2,1
508,CED,-32.1264,133.701,Ceduna Airport,Ceduna,South Australia,Australia,28677708,Australia/Adelaide,0,Airports,BLANK,BLANK,5735.0,77.0,BLANK,1,1
509,CEE,59.083,37.938,Cherepovets Airport,Cherepovets,Vologodskaya Oblast,Russia,12515900,Europe/Moscow,0,Airports,BLANK,BLANK,,,BLANK,4,1
510,CEG,53.1707,-2.98142,Hawarden Airport,Chester,Wales,United Kingdom,12518100,Europe/London,0,Airports,BLANK,BLANK,4714.0,35.0,BLANK,7,2
511,CEI,19.8864,99.8306,Chiang Rai Airport,Chiang Rai,Chiang Rai,Thailand,12517751,Asia/Bangkok,0,Airports,BLANK,BLANK,4890.0,1365.0,VTCT,3,7
512,CEK,55.3104,61.4913,Chelyabinsk Balandino Airport,Zlatoust,Chelyabinskaya Oblast,Russia,12515894,Asia/Yekaterinburg,0,Airports,BLANK,BLANK,,,KCEK,14,11
513,CEM,65.6121,-144.674,Central Airport,Circle,Alaska,United States,12524607,America/Anchorage,0,Airports,BLANK,BLANK,3000.0,932.0,BLANK,1,1
514,CEN,27.3925,-109.832,Ciudad Obregon Airport,Ciudad Obregón,Sonora,Mexico,12514849,America/Hermosillo,0,Airports,BLANK,BLANK,7546.0,243.0,MMCN,5,2
515,CEZ,37.3044,-108.63,Cortez-Montezuma County Airport,Cortez,Colorado,United States,12519328,America/Denver,0,Airports,BLANK,BLANK,7205.0,5914.0,KCEZ,1,3
516,CFC,-26.7775,-51.0175,Cacador Airport,Caçador,Santa Catarina,Brazil,12523508,America/Sao_Paulo,0,Airports,BLANK,BLANK,,,BLANK,2,1
517,CFE,45.7896,3.16013,Aulnat Airport,Aulnat,Auvergne,France,12512847,Europe/Paris,0,Airports,BLANK,BLANK,9892.0,1089.0,LFLC,19,7
518,CFK,36.2128,1.33167,Abou Bakr Belkaid,Chlef,Chlef,Algeria,12510322,Africa/Algiers,0,Airports,BLANK,BLANK,1200.0,,BLANK,1,2
519,CFN,55.0416,-8.3436,Carrickfin Airport,Mullaghduff,BLANK,Ireland,12512717,Europe/Dublin,0,Airports,BLANK,BLANK,2001.0,26.0,EIDL,2,1
520,CFR,49.1825,-0.45906,Carpiquet Airport,Carpiquet,Basse-Normandie,France,12523083,Europe/Paris,0,Airports,BLANK,BLANK,5249.0,256.0,LFRK,2,3
521,CFS,-30.3171,153.119,Coffs Harbour Airport,Coffs Harbour,New South Wales,Australia,12510636,Australia/Sydney,0,Airports,BLANK,BLANK,6824.0,18.0,KCFS,4,4
522,CFU,39.6013,19.9136,Kerkira Airport,Corcyra,Nisia Ionioy,Greece,12513298,Europe/Athens,0,Airports,BLANK,http://www.hcaa.gr/content/index.asp,7792.0,13.0,LGKR,33,14
523,CGA,55.4592,-133.106,Craig Seaplane Base,Craig,Alaska,United States,12524610,America/Anchorage,0,Airports,BLANK,BLANK,,1.0,BLANK,2,3
524,CGB,-15.6497,-56.1169,Marechal Rondon International Airport,Cuiaba,Centro-Oeste,Brazil,12511228,America/Cuiaba,0,Airports,BLANK,BLANK,7546.0,613.0,SBCY,13,5
525,CGD,28.9196,111.63,Changde Airport,Changde,Hunan,China,12511995,Asia/Shanghai,0,Airports,BLANK,BLANK,,,BLANK,5,4
526,CGH,-23.6285,-46.6589,Congonhas International Airport,Sao Paulo,Sao Paulo,Brazil,23388212,America/Sao_Paulo,0,Airports,BLANK,BLANK,6362.0,2631.0,SBSP,26,6
527,CGI,37.2272,-89.5637,Cape Girardeau Municipal Airport,Scott City,Missouri,United States,12519053,America/Chicago,0,Airports,BLANK,BLANK,6499.0,342.0,KCGI,1,1
528,CGK,-6.11964,106.656,Jakarta International Airport,Tangerang,Banten,Indonesia,23388291,Asia/Jakarta,+62 (0)21 550 5179,Airports,BLANK,http://www.angkasapura2.co.id,12008.0,34.0,WIII,51,45
529,CGM,9.173,124.725,Philippines,Camiguin,Northern Mindanao,Philippines,23424934,Asia/Manila,0,Airports,BLANK,BLANK,3281.0,16.0,BLANK,1,1
530,CGN,50.8784,7.12293,Cologne Bonn Airport,Cologne,North Rhine-Westphalia,Germany,23030981,Europe/Berlin,0,Airports,BLANK,http://www.koeln-bonn-airport.de/index.php,12467.0,300.0,EDDK,129,45
531,CGO,34.75,113.65,Zhengzhou Airport,Zhengzhou,Henan,China,12523109,Asia/Shanghai,0,Airports,BLANK,BLANK,,,ZHCC,38,14
532,CGP,22.2517,91.815,Chittagong Airport,Chittagong,Chittagong,Bangladesh,12510886,Asia/Dhaka,0,Airports,BLANK,BLANK,10000.0,12.0,VGEG,10,14
533,CGQ,43.9069,125.207,Dafang Shen Airport,Changchun,Jilin,China,12512022,Asia/Shanghai,0,Airports,BLANK,BLANK,,,ZYCC,22,12
534,CGR,-20.475,-54.6736,Campo Grande International Airport,Campo Grande,Mato Grosso do Sul,Brazil,12511071,America/Campo_Grande,0,Airports,BLANK,BLANK,8530.0,1833.0,SBCG,9,4
535,CGY,8.4139,124.608,Cagayan de Oro Airport,Cagayan de Oro,Northern Mindanao,Philippines,12515602,Asia/Manila,0,Airports,BLANK,BLANK,6857.0,610.0,BLANK,2,3
536,CHA,35.0373,-85.1966,Chattanooga Metropolitan Airport,Chattanooga,Tennessee,United States,12520716,America/New_York,0,Airports,BLANK,BLANK,7401.0,682.0,KCHA,13,15
537,CHC,-43.4859,172.534,Christchurch International Airport,Christchurch,Canterbury,New Zealand,12515152,Pacific/Auckland,+64 3 358 5029,Airports,BLANK,http://www.christchurch-airport.co.nz,10785.0,123.0,NZCH,24,19
538,CHO,38.14,-78.4487,Charlottesville Albemarle Airport,Earlysville,Virginia,United States,12519149,America/New_York,0,Airports,BLANK,BLANK,6001.0,640.0,KCHO,7,9
539,CHQ,35.5319,24.1489,Souda Airport,Canea,Kriti,Greece,12513324,Europe/Athens,+30 28 21083800,Airports,BLANK,BLANK,11811.0,492.0,LGSA,24,12
540,CHS,32.8838,-80.0356,Charleston International Airport,North Charleston,South Carolina,United States,12519142,America/New_York,0,Military Airport,BLANK,BLANK,9001.0,46.0,KCHS,22,25
541,CHT,-37.9723,174.566,Karewa,Chatham Island,Canterbury,New Zealand,28645780,Pacific/Chatham,0,Airports,BLANK,BLANK,4462.0,43.0,KCHT,3,1
542,CHU,61.5769,-159.244,Chuathbaluk,Chuathbaluk,Alaska,United States,2380180,America/Nome,0,Airports,BLANK,BLANK,,,KCHU,1,3
543,CHY,-6.7,156.45,Choiseul Bay,Choiseul Bay,Western,Solomon Islands,1020483,Pacific/Noumea,0,Airports,BLANK,BLANK,2395.0,5.0,BLANK,1,1
544,CIA,41.8004,12.5908,Ciampino Airport,Rome,Lazio,Italy,22307480,Europe/Rome,0,Airports,BLANK,http://www.adr.it/,7218.0,426.0,LIRA,34,4
545,CIC,39.7987,-121.854,Chico Municipal Airport,Chico,California,United States,12519180,America/Los_Angeles,0,Airports,BLANK,BLANK,6724.0,238.0,KCIC,1,1
546,CID,41.8893,-91.7008,Cedar Rapids Municipal Airport,Cedar Rapids,Iowa,United States,12519110,America/Chicago,0,Airports,BLANK,BLANK,7000.0,864.0,KCID,15,20
547,CIF,42.3333,119.008,Chifeng,Chifeng,Nei Mongol,China,2149762,Asia/Shanghai,0,Airports,BLANK,BLANK,,,BLANK,2,2
548,CIH,36.1833,113.133,Changzhi,Changzhi,Shanxi,China,2154549,Asia/Shanghai,0,Airports,BLANK,BLANK,,,BLANK,5,4
549,CIJ,-11.0178,-68.759,E. Beltram Airport,Cobija,Pando,Bolivia,12523541,America/La_Paz,0,Airports,BLANK,BLANK,3608.0,771.0,BLANK,2,2
550,CIK,66.65,-143.75,Chalkyitsik Airport,Chalkyitsik,Alaska,United States,12524613,America/Anchorage,0,Airports,BLANK,BLANK,2500.0,560.0,BLANK,1,2
551,CIP,-11.1358,-38.5205,BLANK,Chipata,Eastern,Zambia,1564855,Africa/Lusaka,0,Airports,BLANK,BLANK,4822.0,3359.0,BLANK,1,1
552,CIT,39.89,-78.0166,BLANK,Shimkent,BLANK,Kazakhstan,23424871,Asia/Qyzylorda,0,Airports,BLANK,BLANK,,,BLANK,5,3
553,CIU,46.2581,-84.4739,Chippewa County International Airport,Kincheloe,Michigan,United States,12519187,America/New_York,0,Airports,BLANK,BLANK,7201.0,799.0,KCIU,2,4
554,CIW,12.7187,-61.3306,Canouan Airport,Canouan Island,Grenadines,Saint Vincent and the Grenadines,12524425,America/St_Vincent,0,Airports,BLANK,BLANK,2150.0,18.0,BLANK,2,1
555,CIX,-6.7897,-79.8322,Cap J A Quinones Gonzales Airport,Chiclayo,Lambayeque,Peru,12515192,America/Lima,0,Airports,BLANK,BLANK,8267.0,95.0,SPHI,3,5
556,CJA,-7.1322,-78.4889,Maj Gen Fap A R Iglesias Airport,Cajamarca,Cajamarca,Peru,12515209,America/Lima,0,Airports,BLANK,BLANK,5971.0,8590.0,BLANK,1,1
557,CJB,11.0233,77.0482,Peelamedu Airport,Coimbatore,Tamil Nadu,India,12513569,Asia/Kolkata,0,Airports,BLANK,BLANK,10000.0,1319.0,BLANK,8,11
558,CJC,-22.4944,-68.9017,El Loa Airport,Calama,Antofagasta,Chile,12512320,America/Santiago,0,Airports,BLANK,BLANK,9468.0,7606.0,BLANK,5,4
559,CJJ,36.7131,127.509,Cheongju International Airport,Naesu-Eup,Chungcheongbuk-Do,South Korea,12514203,Asia/Seoul,0,Military Airport,BLANK,BLANK,,,KCJJ,5,6
560,CJL,35.8861,71.7944,Chitral Airport,Chitral,North-West Frontier,Pakistan,12515230,Asia/Karachi,0,Airports,BLANK,BLANK,5800.0,4900.0,BLANK,2,1
561,CJS,31.6361,-106.428,Ciudad Juarez International Airport,Ciudad Juarez,Chihuahua,Mexico,12514848,America/Mexico_City,0,Airports,BLANK,BLANK,8859.0,3842.0,MMCS,10,10
562,CJU,33.5056,126.495,Cheju International Airport,Jeju-Si,Jaeju-Do,South Korea,12514202,Asia/Seoul,0,Airports,BLANK,BLANK,9800.0,126.0,RKPC,19,8
563,CKB,39.2967,-80.2314,Benedum Airport,Clarksburg,West Virginia,United States,12518797,America/New_York,0,Airports,BLANK,BLANK,5198.0,1203.0,KCKB,4,2
564,CKD,61.8667,-158.133,Crooked Creek Airport,Aniak,Alaska,United States,12524616,America/Anchorage,0,Airports,BLANK,BLANK,1200.0,2650.0,BLANK,2,4
565,CKG,29.5833,106.5,Chongqing Jiangbei International,Chongqing,Chongqing,China,12523085,Asia/Shanghai,0,Airports,BLANK,BLANK,,,BLANK,48,25
566,CKH,70.6416,147.933,Russia,Chokurdah,Sakha,Russia,23424936,Asia/Magadan,0,Airports,BLANK,BLANK,,,BLANK,1,1
567,CKS,-6.1175,-50.0036,Carajas Airport,Carajas,Para,Brazil,12511077,America/Belem,0,Airports,BLANK,BLANK,6562.0,2028.0,BLANK,2,1
568,CKX,64.0833,-141.917,Chicken Airport,Tok,Alaska,United States,12524619,America/Anchorage,0,Airports,BLANK,BLANK,2600.0,1640.0,BLANK,1,1
569,CKY,9.5764,-13.6108,Conakry Airport,Conakry,Conakry,Guinea,12513342,Africa/Conakry,0,Airports,BLANK,BLANK,10827.0,72.0,GUCY,7,14
570,CKZ,40.1553,26.4142,Abydus,Canakkale,Çanakkale,Turkey,2343859,Europe/Istanbul,0,Airports,BLANK,BLANK,3654.0,28.0,BLANK,1,1
571,CLD,33.1255,-117.275,Mcclellan Palomar Airport,Carlsbad,California,United States,12520851,America/Los_Angeles,0,Airports,BLANK,http://www.co.san-diego.ca.us/dpw/airports/mcpal.htm,4700.0,328.0,KCRQ,1,3
572,CLE,41.4115,-81.8339,Hopkins International Airport,Cleveland,Ohio,United States,12520226,America/New_York,0,Airports,BLANK,BLANK,8998.0,792.0,KCLE,102,44
573,CLJ,46.7902,23.6984,Someseni Airport,Clausemburgo,Cluj,Romania,12515577,Europe/Bucharest,0,Airports,BLANK,BLANK,6070.0,1033.0,LRCL,17,9
574,CLL,30.5938,-96.3685,Easterwood Field Airport,College Station,Texas,United States,12519579,America/Chicago,0,Airports,BLANK,BLANK,7000.0,319.0,KCLL,2,4
575,CLM,48.1155,-123.491,William R Fairchild International Airport,Port Angeles,Washington,United States,12522452,America/Los_Angeles,0,Airports,BLANK,BLANK,6349.0,288.0,KCLM,1,1
576,CLO,3.5461,-76.385,Alfonso Bonilla Aragon International Airport,Obando,Valle del Cauca,Colombia,12512360,America/Bogota,0,Airports,BLANK,BLANK,9842.0,3162.0,SKCL,19,15
577,CLP,58.8517,-158.51,Clarks Point Airport,Clarks Point,Alaska,United States,12524621,America/Anchorage,0,Airports,BLANK,BLANK,2730.0,10.0,BLANK,1,1
578,CLQ,19.2733,-103.577,Colima Airport,Cuauhtémoc,Colima,Mexico,12514853,America/Mexico_City,0,Airports,BLANK,BLANK,4746.0,1499.0,MMIA,2,3
579,CLT,35.2226,-80.946,Douglas International Airport,Charlotte,North Carolina,United States,12519519,America/New_York,0,Airports,BLANK,http://www.charmeck.org/Departments/Airport/Home.htm,10000.0,749.0,KCLT,133,39
580,CLY,42.5295,8.79677,Ste Catherine Airport,Calenzana,Corsica,France,12512978,Europe/Paris,0,Airports,BLANK,BLANK,7579.0,210.0,LFKC,7,3
581,CMA,-28.0333,145.617,Cunnamulla,Cunnamulla,Queensland,Australia,12708296,Australia/Brisbane,0,Airports,BLANK,BLANK,5680.0,630.0,YCMU,2,1
582,CMB,7.1806,79.8856,Katunayake International Airport,Gampaha,Western,Sri Lanka,12511941,Asia/Colombo,0,Airports,BLANK,BLANK,10900.0,,VCBI,37,26
583,CME,18.6522,-91.8011,Ciudad del Carmen Airport,Carmen Olorón,Campeche,Mexico,12514846,America/Mexico_City,0,Airports,BLANK,BLANK,6004.0,7.0,MMCE,4,7
584,CMF,45.6375,5.88291,Aix les Bains Airport,La Motte,Rhone-Alpes,France,12512839,Europe/Paris,+33 4 79 54 43 54,Airports,BLANK,http://www.chambery.aeroport.fr/rubrique.php3?id_rubrique=55,5807.0,778.0,LFLB,9,2
585,CMG,-19.0055,-57.7055,Corumba International Airport,Corumba,Mato Grosso do Sul,Brazil,12511101,America/Campo_Grande,0,Airports,BLANK,BLANK,5443.0,461.0,SBCR,1,1
586,CMH,39.9974,-82.8877,Port Columbus International Airport,Columbus,Ohio,United States,12521441,America/New_York,0,Airports,BLANK,BLANK,10701.0,816.0,KCMH,41,35
587,CMI,40.0367,-88.2638,University of Illinois-Willard Airport,Savoy,Illinois,United States,12522247,America/Chicago,0,Airports,BLANK,http://www.flycmi.com,8100.0,754.0,KCMI,3,6
588,CMN,33.365,-7.5817,Mohamed V Airport,Casablanca,Casablanca,Morocco,12514788,Africa/Casablanca,0,Airports,BLANK,BLANK,12205.0,656.0,GMMN,74,31
589,CMU,-6.0283,44.9717,Chimbu Airport,Kundiawa,,Papua New Guinea,12515463,Pacific/Port_Moresby,0,Airports,BLANK,BLANK,3410.0,4900.0,BLANK,1,1
590,CMW,21.4186,-77.8458,Ignacio Agramonte Airport,Camagüey,Camaguey,Cuba,12512465,America/Havana,0,Airports,BLANK,BLANK,9842.0,413.0,BLANK,2,1
591,CMX,47.1689,-88.4942,Houghton County Memorial Airport,Hancock,Michigan,United States,12520236,America/New_York,0,Airports,BLANK,BLANK,6501.0,1095.0,KCMX,1,4
592,CNB,-30.9742,148.381,Coonamble Airport,Coonamble,New South Wales,Australia,12510642,Australia/Sydney,0,Airports,BLANK,BLANK,5010.0,604.0,BLANK,2,1
593,CNC,-10.0505,143.069,Australia,Coconut Island,Queensland,Australia,28644989,Australia/Brisbane,0,Airports,BLANK,BLANK,,,KCNC,1,1
594,CND,44.3581,28.4896,Constanta Mihail Kogalniceanu Airport,Kustenje,Constanta,Romania,12515525,Europe/Bucharest,0,Airports,BLANK,BLANK,11483.0,354.0,LRCK,4,4
595,CNF,-19.6242,-43.9717,Tancredo Neves International Airport,Confins,Minas Gerais,Brazil,12511339,America/Sao_Paulo,0,Airports,BLANK,BLANK,,,SBCF,15,13
596,CNJ,-20.6657,140.508,Cloncurry Aerodrome,Cloncurry,Queensland,Australia,12510634,Australia/Brisbane,0,Airports,BLANK,BLANK,5500.0,622.0,BLANK,4,2
597,CNM,32.3458,-104.251,Cavern City Air Terminal Airport,Carlsbad,New Mexico,United States,12519107,America/Denver,0,Airports,BLANK,BLANK,7854.0,3293.0,KCNM,2,1
598,CNP,70.7431,-22.6583,Neerlerit Inaat,Neerlerit Inaat,Ostgronland,Greenland,10644998,America/Indiana/Tell_City,0,Airports,BLANK,BLANK,,,KCNP,2,1
599,CNQ,-27.4497,-58.7622,Corrientes Airport,Corrientes,Corrientes,Argentina,12510484,America/Buenos_Aires,0,Airports,BLANK,BLANK,6890.0,203.0,BLANK,3,1
600,CNS,-16.8831,145.753,Cairns International Airport,Cairns,Queensland,Australia,12510623,Australia/Brisbane,0,Airports,BLANK,BLANK,10489.0,10.0,YBCS,29,20
601,CNX,18.7714,98.9628,Chiang Mai International Airport,Chiang Mai,Roi Et,Thailand,12517750,Asia/Bangkok,0,Airports,BLANK,http://www.airportthai.co.th/airportnew/chmai/html/gen_info1.htm,10330.0,1035.0,VTCC,16,21
602,CNY,38.7609,-109.742,Canyonlands Field Airport,Thompson,Utah,United States,12519050,America/Denver,0,Airports,BLANK,BLANK,6901.0,4575.0,KCNY,2,3
603,COD,44.5134,-109.031,Yellowstone Regional Airport,Cody/Yellowstone,Wyoming,United States,12522532,America/Denver,0,Airports,BLANK,BLANK,8505.0,5089.0,KCOD,2,3
604,COK,9.93997,76.2748,Kochi Airport,Kochi,Kerala,India,12513568,Asia/Kolkata,0,Airports,BLANK,http://www.cochin-airport.com/,6380.0,8.0,VOCC,22,21
605,COL,56.6167,-6.61667,Coll Island Airport,Isle of coll,Scotland,United Kingdom,12523978,Europe/London,0187 93367,Airports,BLANK,BLANK,1642.0,41.0,BLANK,2,1
606,COO,6.3542,2.3856,Cotonou Cadjehon Airport,Cotonou,Atlantique,Benin,12510939,Africa/Porto-Novo,0,Airports,BLANK,BLANK,7874.0,16.0,DBBB,16,21
607,COQ,48.1366,114.65,Choybalsan Northeast Airport,Choibalsan,Dornod,Mongolia,12514740,Asia/Ulaanbaatar,0,Airports,BLANK,BLANK,,,KCOQ,1,1
608,COR,-31.3131,-64.1994,Ingeniero Ambrosio L.V. Taravella International ,Cordoba,Cordoba,Argentina,12510482,America/Buenos_Aires,0,Airports,BLANK,BLANK,10499.0,1604.0,SACO,6,8
609,COS,38.7829,-104.697,City of Colorado Springs Municipal Airport,Colorado Springs,Colorado,United States,12519208,America/Denver,719-550-1972,Airports,BLANK,BLANK,11021.0,6172.0,KCOS,16,19
610,COU,38.8174,-92.2218,Columbia Regional Airport,Columbia,Missouri,United States,12519286,America/Chicago,0,Airports,BLANK,BLANK,6500.0,889.0,KCOU,3,4
611,CPC,-40.0758,-71.1392,Chapelco Airport,San Martin DeLos Andes,Buenos Aires,Argentina,12510474,America/Buenos_Aires,0,Airports,BLANK,BLANK,8202.0,2556.0,SAMI,1,1
612,CPD,-29.0378,134.724,Coober Pedy Aerodrome,Coober Pedy,South Australia,Australia,12510638,Australia/Adelaide,0,Airports,BLANK,BLANK,4630.0,734.0,BLANK,1,1
613,CPE,19.8158,-90.5008,Ignacio Alberto Acuna Ongay Airport,Campeche,Campeche,Mexico,12514891,America/Mexico_City,0,Airports,BLANK,BLANK,8202.0,31.0,MMCP,3,3
614,CPH,55.6205,12.6495,Copenhagen Airport,Kastrup,Hovedstaden,Denmark,22851127,Europe/Copenhagen,0,Airports,BLANK,http://www.cph.dk,11811.0,17.0,EKCH,136,76
615,CPO,-27.2933,-70.4122,Chamonate Airport,Copiapó,Atacama,Chile,12512314,America/Santiago,0,Airports,BLANK,BLANK,5249.0,954.0,BLANK,5,4
616,CPQ,-23.0,-47.1333,Campinas International Airport,Campinas,Sao Paulo,Brazil,12523513,America/Sao_Paulo,0,Airports,BLANK,BLANK,3936.0,2051.0,BLANK,6,4
617,CPR,42.8966,-106.465,Natrona County International Airport,Casper,Wyoming,United States,12521085,America/Denver,0,Airports,BLANK,BLANK,10600.0,5348.0,KCPR,4,4
618,CPT,-33.9647,18.6022,D F Malan Airport,Cape Town,Western Cape,South Africa,12517402,Africa/Johannesburg,+ 27 21 937 1275,Airports,BLANK,http://www.acsa.co.za,10512.0,151.0,FACT,23,27
619,CPV,-7.2689,-35.8947,Presidente Joao Suassuna Airport,Campina Grande,Paraiba,Brazil,12511202,America/Belem,0,Airports,BLANK,BLANK,5249.0,1641.0,SBKG,1,1
620,CPX,18.3204,-65.2929,Culebra Airport,Culebra,Puerto Rico,United States,12515657,America/Puerto_Rico,0,Airports,BLANK,BLANK,2600.0,65.0,TJCP,1,1
621,CQD,32.2967,50.8417,Shahre-Kord,Shahre-Kord,Chahar Mahall va Bakhtiari,Iran,12843511,Asia/Tehran,0,Airports,BLANK,BLANK,,,BLANK,2,2
622,CRA,44.3173,23.8447,Craiova Airport,Croiova,Dolj,Romania,12523964,Europe/Bucharest,0,Airports,BLANK,BLANK,,,LRCV,2,1
623,CRD,-45.7872,-67.4628,General Enrique Mosconi Airport,Comodoro Rivadavia,Chubut,Argentina,12510499,America/Buenos_Aires,0,Airports,BLANK,BLANK,9025.0,190.0,SAVC,2,2
624,CRI,22.7467,-74.18,Colonel Hill Airport,Colonel Hill,Crooked Island,Bahamas,12510863,America/Nassau,0,Airports,BLANK,BLANK,3500.0,5.0,BLANK,2,1
625,CRK,15.1806,120.557,Clark Field Airport,Mabalacat,Central Luzon,Philippines,12515607,Asia/Manila,0,Military Airport,BLANK,BLANK,10500.0,478.0,RPLC,9,9
626,CRL,50.4601,4.45878,Gosselies Airport,Charleroi,Hainault,Belgium,22048658,Europe/Brussels,0,Other Airport,BLANK,BLANK,8366.0,614.0,EBCI,32,3
627,CRM,12.5044,124.635,Catarman Airport,Catarman,Eastern Visayas,Philippines,12515605,Asia/Manila,0,Airports,BLANK,BLANK,3346.0,6.0,BLANK,1,3
628,CRP,27.7747,-97.5019,Corpus Christi International Airport,Corpus Christi,Texas,United States,12519324,America/Chicago,0,Airports,BLANK,BLANK,7508.0,44.0,KCRP,5,12
629,CRW,38.3697,-81.5951,Yeager Airport,Charleston,West Virginia,United States,12522530,America/New_York,0,Airports,BLANK,BLANK,6302.0,982.0,KCRW,10,9
630,CSA,56.0603,-6.22418,Isle Of Colonsay,Isle Of Colonsay,Scotland,United Kingdom,26350303,Europe/London,01951 200411,Airports,BLANK,BLANK,1642.0,35.0,BLANK,1,1
631,CSG,32.5184,-84.9401,Columbus Metropolitan Airport,Columbus,Georgia,United States,23418432,America/New_York,0,Airports,BLANK,BLANK,,,KCSG,1,2
632,CSH,65.05,35.6667,Solovky,Solovetsky,Arkhangelrskaya Oblast,Russian Federation,2030227,Europe/Moscow,0,Airports,BLANK,BLANK,3500.0,20.0,BLANK,1,2
633,CSK,12.3953,-16.7514,Cap Skiring Airport,Cap Skirring,BLANK,Senegal,12517504,Africa/Dakar,0,Airports,BLANK,BLANK,4757.0,49.0,BLANK,1,1
634,CSX,28.0711,112.958,Huanghua Airport,Changsha,Hunan,China,12523089,Asia/Chongqing,0,Airports,BLANK,BLANK,,,ZGHA,45,20
635,CSY,56.1311,47.2882,Russia,Cheboksary,Chuvashiya,Russia,23424936,Europe/Moscow,0,Airports,BLANK,BLANK,,,UWKS,3,2
636,CTA,37.4696,15.0672,Catania Fontanarossa Airport,Catania,Sicily,Italy,22307044,Europe/Rome,0,Airports,BLANK,http://www.aeroporto.catania.it/,8727.0,43.0,LICC,45,40
637,CTC,-28.5939,-65.7542,Catamarca Airport,San Isidro,Catamarca,Argentina,12510470,America/Buenos_Aires,0,Airports,BLANK,BLANK,9186.0,1522.0,BLANK,1,1
638,CTG,10.4481,-75.5106,Rafael Nunez Airport,La Boquilla,Bolivar,Colombia,12512408,America/Bogota,0,Airports,BLANK,BLANK,8530.0,5.0,SKCG,11,8
639,CTL,-26.4135,146.263,Charleville Aerodrome,Charleville,Queensland,Australia,12510629,Australia/Brisbane,0,Airports,BLANK,BLANK,5000.0,1001.0,BLANK,3,2
640,CTM,18.5039,-88.3247,Chetumal International Airport,Chetumal,Quintana Roo,Mexico,12514841,America/Mexico_City,0,Airports,BLANK,BLANK,7244.0,39.0,MMCM,1,2
641,CTS,42.7757,141.691,New Chitose Airport,Chitose-shi,Hokkaido Prefecture,Japan,12523091,Asia/Tokyo,0,Airports,BLANK,BLANK,9843.0,87.0,RJCC,30,28
642,CTU,30.5775,103.941,Chengdushuang Liu Airport,Chengdu,Sichuan,China,12512010,Asia/Shanghai,0086-28-85702649 / 0086-,Airports,chengduair@cdairport.com,http://www.cdairport.com/cdairport/en_front/index.jsp,,,ZUUU,62,30
643,CUC,7.93,-72.5094,Camilo Daza Airport,Cúcuta,Norte de Santander,Colombia,12512370,America/Bogota,0,Airports,BLANK,BLANK,7611.0,1073.0,SKCC,2,4
644,CUE,-2.8867,-78.9833,Mariscal Lamar Airport,Cuenca,Azuay,Ecuador,12512642,America/Guayaquil,0,Airports,BLANK,BLANK,6230.0,8302.0,SECU,2,3
645,CUF,44.5466,7.61998,Levaldigi Airport,Fossano,Piedmont,Italy,12513834,Europe/Rome,0,Airports,BLANK,BLANK,4920.0,1242.0,BLANK,6,4
646,CUK,17.4956,-88.1816,Belize,Caye Caulker,Belize,Belize,23424760,America/Belize,0,Airports,BLANK,BLANK,,,BLANK,2,1
647,CUL,24.7644,-107.474,Culiacan Airport,Culiacan,Sinaloa,Mexico,12514859,America/Mazatlan,0,Airports,BLANK,BLANK,7546.0,108.0,MMCL,8,7
648,CUM,10.4539,-64.1297,Antonio Jose de Sucre Airport,Cumaná,Sucre,Venezuela,12522754,America/Caracas,0,Airports,BLANK,BLANK,6857.0,14.0,SVCU,1,1
649,CUN,21.0406,-86.8744,Cancun Airport,Cancun,Quintana Roo,Mexico,23388337,America/Mexico_City,0,Airports,BLANK,BLANK,11483.0,16.0,MMUN,68,47
650,CUP,10.6589,-63.2625,Gen Jose Francisco Bermudez Airport,El Pilar,Sucre,Venezuela,12522786,America/Caracas,0,Airports,BLANK,BLANK,6759.0,33.0,SVCP,1,1
651,CUR,12.188,-68.9634,Hato Airport,Curacao,Curacao,Netherlands Antilles,12515138,America/Curacao,0,Airports,BLANK,BLANK,11188.0,29.0,TNCC,20,21
652,CUU,28.7028,-105.964,General R F Villalobos International Airport,Chihuahua,Chihuahua,Mexico,12514884,America/Mexico_City,0,Airports,BLANK,BLANK,8531.0,4462.0,MMCU,10,12
653,CUZ,-13.5308,-71.9472,Velazco Astete Airport,San Sebastián,Cusco,Peru,12515222,America/Lima,0,Airports,BLANK,BLANK,11316.0,10656.0,SPZO,5,10
654,CVG,39.0571,-84.6625,Greater Cincinnati International Airport,Hebron,Ohio,United States,12519978,America/New_York,0,Airports,BLANK,BLANK,9501.0,891.0,KCVG,115,39
655,CVM,23.7139,-98.9653,Ciudad Victoria Airport,Güémez,Tamaulipas,Mexico,12514851,America/Mexico_City,0,Airports,BLANK,BLANK,7216.0,771.0,MMCV,2,3
656,CVN,34.4271,-103.087,Clovis Municipal Airport,Texico,New Mexico,United States,12519252,America/Denver,0,Airports,BLANK,BLANK,6200.0,4214.0,KCVN,1,2
657,CVQ,-24.8801,113.669,Carnarvon Airport,Carnarvon,Western Australia,Australia,12510626,Australia/Perth,0,Airports,BLANK,BLANK,5508.0,12.0,BLANK,4,1
658,CVT,52.367,-1.4895,Coventry Airport,Coventry,England,United Kingdom,12518067,Europe/London,+44 (0) 24 76 308 600,Airports,BLANK,http://www.coventryairport.co.uk,6588.0,269.0,EGBE,9,2
659,CVU,39.7,-31.1,Corvo Island Airport,Corvo,Azores,Portugal,12523960,Atlantic/Azores,0,Airports,BLANK,BLANK,,,BLANK,2,1
660,CWA,44.7846,-89.6704,Central Wisconsin Airport,Mosinee,Wisconsin,United States,12519120,America/Chicago,0,Airports,BLANK,BLANK,7645.0,1277.0,KCWA,4,9
661,CWB,-25.5275,-49.1731,Afonso Pena International Airport,Sao Jose dos Pinhais,Parana,Brazil,12511012,America/Sao_Paulo,+55(41)3381-1515,Airports,BLANK,BLANK,7267.0,2989.0,SBCT,19,16
662,CWC,48.2526,25.976,Chernovtsy Airport,Chernivtsi,Chernivets´ka Oblast´,Ukraine,12518229,Europe/Kiev,0,Airports,BLANK,BLANK,,,BLANK,1,2
663,CWL,51.3998,-3.34475,Cardiff International Airport,Barry,Wales,United Kingdom,22452963,Europe/London,0,Airports,BLANK,http://www.cwlfly.com,7723.0,220.0,EGFF,23,16
664,CXB,21.45,91.9681,Coxs Bazar Airport,Cox's Bazar,Chittagong,Bangladesh,12510888,Asia/Dhaka,0,Airports,BLANK,BLANK,,,BLANK,2,4
665,CXH,49.5912,-125.848,Coal Harbour Airport,Vancouver,British Columbia,Canada,12511619,America/Vancouver,0,Airports,BLANK,BLANK,,,CYHC,4,2
